idplaces	name	country	country_code	longitude	latitude
000073352b5bd43a	Pico Truncado	Argentina	AR	-67.9561153	-46.7965242
0000ffd41ff0eaac	Pereira	Colombia	CO	-75.690601	4.8087174
0001eac9096ed83c	San Fernando del Valle de Catamarca	Argentina	AR	-65.7795441	-28.469581
00025abf09ee76e2	Caucasia	Colombia	CO	-75.1985629	7.979698
000292fc001f4dc4	Cosquín	Argentina	AR	-64.4703813	-31.2468127
0003325e5c63a062	Victor Larco Herrera	Peru	PE	-79.046992	-8.133917799999999
0003557c7b244fd3	San José	Costa Rica	CR	-84.0907246	9.9280694
0003b65730e429eb	Barrio Parque Almirante Irizar	Argentina	AR	-58.4002472	-34.5796724
000426466c9f6e32	La Romana	Dominican Republic	DO	-68.9658817	18.4338645
00049798250632c1	Girardot	Colombia	CO	-74.8031414	4.3045959
0004c3fb58780d2a	Callao	Peru	PE	-77.1259843	-12.0508491
00054d3a0a8df14e	Mendoza	Argentina	AR	-68.8458386	-32.8894587
00058899244b705d	San Bartolo	Peru	PE	-76.77046419999999	-12.3849381
0005a92a6b72edeb	Pilar	Argentina	AR	-58.9091671	-34.4778621
0005b7263270d37f	Buin	Chile	CL	-70.742431	-33.7313897
000740067e1156ab	Chía	Colombia	CO	-74.0325368	4.8615787
0008033749106b3d	Ventanas	Ecuador	EC	-79.4604818	-1.4441882
00082bc93ac0e177	Montalvo	Ecuador	EC	-79.2873953	-1.7879521
00082d21223f8397	Santa Marta	Colombia	CO	-74.2110227	11.2403547
00090761404cb268	Chimbas	Argentina	AR	-68.51279079999999	-31.4922964
000a15027a9003e0	Cañada de Gomez	Argentina	AR	-61.3953734	-32.8211646
000a610a5a637388	Valdivia	Colombia	CO	-75.39215	7.29117
000a85935b3608b2	Cañuelas	Argentina	AR	-58.75950530000001	-35.04914249999999
000ac536774ebaa6	Pedro Aguirre Cerda	Chile	CL	-70.67650259999999	-33.4940901
000af2920fcd0d30	Temuco	Chile	CL	-72.5903739	-38.7359018
000b2cae4cb227ee	Strobel	Argentina	AR	-71.1960709	-48.444126
000c53bd03a3e3ec	Tuluá	Colombia	CO	-76.1914991	4.089869
000c865e5c2c5ada	Barrancas	Venezuela	VE	-62.2010974	8.7009358
000cd22f253ee776	Yumbo	Colombia	CO	-76.495026	3.545337
000ce4b0629a5a40	Corozal	Colombia	CO	-75.294467	9.321697000000002
000ceddc32916a4c	Lomas de Zamora	Argentina	AR	-58.4302476	-34.76118230000001
000cf3e166414072	Chivacoa	Venezuela	VE	-68.89732680000002	10.1572383
000da1a228db0cf7	Duran	Ecuador	EC	-79.8397207	-2.168974
000da7fb7004f1bc	Mocoa	Colombia	CO	-76.651055	1.15234
000f0d3a479dc2ba	Lajas	United States	US	-67.05076600000001	18.038066
000f50400f2ec9b3	Uruguay	Argentina	AR	-58.2344527	-32.485827
000f71136a018c6b	Quillota	Chile	CL	-71.2497156	-32.8803027
001040bd29e08949	Ushuaia	Argentina	AR	-68.3029511	-54.8019121
0010b4cb51ca93d8	Santiago	Chile	CL	-70.6692655	-33.4488897
0010d1225473d783	Panguipulli	Chile	CL	-72.3370089	-39.6415998
001159047bb9935e	Villa Gobernador Gálvez	Argentina	AR	-60.6337608	-33.0255203
0014e5be2018f233	Esquel	Argentina	AR	-71.31431169999999	-42.9095281
0015065c5a4fa3c4	Itapua	Paraguay	PY	-55.6689636	-26.7923623
0015f9d50ae3c4d7	Yarumal	Colombia	CO	-75.4190689	6.961969
0016a28c5fdad928	General Roca	Argentina	AR	-67.5892227	-39.032803
0016b0ca4701a899	Buenaventura	Colombia	CO	-77.01972119999999	3.8830471
001751105a5e4c94	Maule	Chile	CL	-71.6884912	-35.5183364
001761ed5e7c7c15	Magdalena Vieja	Peru	PE	-77.0692591	-12.0752423
0017753e191a1a9e	Talca	Chile	CL	-71.6484804	-35.4232444
00184c97782f823e	Huaraz	Peru	PE	-77.5287792	-9.5261154
00189e3503ff4e54	Santo Domingo	Ecuador	EC	-79.1763307	-0.2538414
0018c59b516c5482	Guazapa	El Salvador	SV	-89.1610748	13.8781715
0018f7f03c776042	Casa de Campo	España	ES	-3.753666299999999	40.421432
0019706f5d1bc8ec	Manatí	United States	US	-66.4758583	18.433005
001a090f0374bd47	Salento	Colombia	CO	-75.570777	4.637376
001a4e435087b92e	Cordillera	Paraguay	PY	-57.0111681	-25.2289491
001a5dc56691b740	Malvinas Argentinas	Argentina	AR	-58.71017029999999	-34.4890265
001bbfee6edcdb06	El Quisco	Chile	CL	-71.6981538	-33.398596
001c55a93499d110	Cerrillos	Argentina	AR	-65.4871162	-24.8958166
001c7bc871d01ba9	Quibor	Venezuela	VE	-69.61549819999999	9.9312927
001cb64559a1b098	Recoletos	España	ES	-3.6921742	40.4223818
001d85c66570434e	Tunja	Colombia	CO	-73.3575572	5.5446422
001eb6f061336e9f	Plottier - Norte	Argentina	AR	-68.22885	-38.9475672
001ee1267f90fe69	Bisonó	Dominican Republic	DO	-70.8693486	19.5594332
001fcc4042abb958	Táriba	Venezuela	VE	-72.2159356	7.822511199999999
001fdbd7614a721b	Pencahue	Chile	CL	-71.7974563	-35.3960652
002058875a25a349	Toa Alta	United States	US	-66.2482237	18.3882823
0020c4a85f39f57a	Empalme	Ecuador	EC	-79.6080967	-1.0483186
002129bd2622e876	Neiva	Colombia	CO	-75.2809001	2.9344837
00216c6e4c38d331	El Carmen	Chile	CL	-72.0333	-36.9
0021712c0bd7eec1	San Miguel de Tucumán	Argentina	AR	-65.2175903	-26.8082848
0022780928134bfb	San Antonio	Chile	CL	-71.6055123	-33.5922807
0022e8c5225f8e22	Lo Espejo	Chile	CL	-70.690565	-33.5220498
0023c19311cdf0fc	Soledad	Colombia	CO	-74.79915059999999	10.9171191
002437a504b6f5dc	Godoy Cruz	Argentina	AR	-68.8583963	-32.9286268
002442586af0948e	Antofagasta	Chile	CL	-70.39750219999999	-23.6509279
00248a624c64e405	Panchimalco	El Salvador	SV	-89.17893230000001	13.6132213
0024a3db373c9593	Circasia	Colombia	CO	-75.635595	4.616093999999999
0024d9c06f06c361	Caazapa	Paraguay	PY	-56.3712327	-26.1827713
0024e35a2f27852c	Cerro Navia	Chile	CL	-70.73467509999999	-33.4216566
002590370f2937a6	San Clemente	Chile	CL	-71.48937049999999	-35.5364676
0025a0b7605b543d	Perene	Peru	PE	-75.06111469999999	-10.8812955
0026918e38560b68	Alto Selva Alegre	Peru	PE	-71.51898	-16.3631508
0027650b5dafc5d7	La Costa	Argentina	AR	-56.6850587	-36.7376124
0027719877a12049	Candelaria De La Frontera	El Salvador	SV	-89.6498742	14.1129483
00278c6a3a1196f8	Ginebra	Colombia	CO	-76.269279	3.725234
0028392b168a2dfe	Parc de Montjuic	España	ES	2.1573033	41.3635139
00283ddf267b8731	Quevedo	Ecuador	EC	-79.4604035	-1.0225124
002869d920551557	Ciénaga	Colombia	CO	-74.248926	11.007984
002880af1d28ba81	Carmen de Patagones	Argentina	AR	-62.9803611	-40.7986389
0028bc6e26ddf8ff	Puerto Varas	Chile	CL	-72.9833	-41.3167
002ad06c37597471	San Juan de la Maguana	Dominican Republic	DO	-71.2309935	18.8096268
002ccbb5032c77fc	Lurigancho	Peru	PE	-76.99398359999999	-11.9689301
002d474f2c3c1ab8	Vilcún	Chile	CL	-72.2244406	-38.6677187
002d598a64beb856	Palora	Ecuador	EC	-77.9681544	-1.7010952
002d95e36048f162	Salto	Uruguay	UY	-57.9612455	-31.388028
002d9a65239936cd	Montería	Colombia	CO	-75.8785348	8.750983
002da1fc489ba8c3	Sierra Gorda	Chile	CL	-69.3171995	-22.8860128
002e1b980d14b9b2	Monte Hermoso	Argentina	AR	-61.287567	-38.9878667
002e2add0d1ff144	Ciudad Ojeda	Venezuela	VE	-71.3111773	10.2214803
002e39797d889bc9	Puerto Nueva	Costa Rica	CR	-84.966026	10.46829
002eebb62e41cfc2	Coyhaique	Chile	CL	-72.068265	-45.5712254
002f7b5c42f0ad74	Fighiera	Argentina	AR	-60.47044029999999	-33.1923016
0030048e70174c6d	Guadalajara de Buga	Colombia	CO	-76.30218889999999	3.9005079
00305d19284e2d88	Santo Domingo	Chile	CL	-71.628056	-33.635833
003090295e0dcbe4	Mar de Ajó	Argentina	AR	-56.6750185	-36.7232497
003092a565bd20f0	Comerío	United States	US	-66.2256022	18.2192001
0030b82f35c6536d	Silvania	Colombia	CO	-74.396782	4.390779999999999
0030d5553dbb13c6	Roldan	Argentina	AR	-60.9102481	-32.90021180000001
00314ce21d9043ef	Magdalena	Argentina	AR	-57.5177615	-35.0806673
0032186343f6a57e	Peumo	Chile	CL	-71.1700793	-34.3963392
0032a06455f7e1ea	Guacara	Venezuela	VE	-67.8927472	10.2646995
0032baff35718ca4	Berazategui	Argentina	AR	-58.2112961	-34.762001
0032fe6c612e7934	Campana	Argentina	AR	-58.95926429999999	-34.1633346
003360dc7574e183	Belén de Escobar	Argentina	AR	-58.7849434	-34.3402525
0033dd9e171e1cef	Funza	Colombia	CO	-74.2118741	4.7176677
00345a791fbe0951	Sitionuevo	Colombia	CO	-74.71955	10.77525
00346b4744ffa593	Madre de Dios	Peru	PE	-70.81199529999999	-11.7668705
0034f8903f0001bc	Lautaro	Chile	CL	-72.45413429999999	-38.5084312
003513a4697c1c45	Artigas	Uruguay	UY	-56.4775937	-30.4068179
003536293853fb39	El Pato	Argentina	AR	-58.1784125	-34.8837665
0035684b0155f0d1	Ocaña	Colombia	CO	-73.3532199	8.252049999999999
003642767728b348	Mar Chiquita	Argentina	AR	-62.5551263	-30.706441
00369f433aca083b	Ibarra	Ecuador	EC	-78.13236479999999	0.3471469
003945e55882f3d4	Carlos Casares	Argentina	AR	-61.3653564	-35.6225839
0039585a1e00bcfa	Rengo	Chile	CL	-70.8608394	-34.4028433
00399e031d54d309	Tinaco	Venezuela	VE	-68.4352835	9.707622299999999
0039dafe6d412c07	Milagro	Ecuador	EC	-79.59405439999999	-2.1387682
003a1dc673345085	Santafé de Antioquia	Colombia	CO	-75.827129	6.557179
003a9440008ca503	Ancón	Peru	PE	-77.1468866	-11.7340437
003aa1d3152e364a	Magdalena del Mar	Peru	PE	-77.06586879999999	-12.0898387
003b2b92713f131a	San José del Guaviare	Colombia	CO	-72.64172649999999	2.568549
003b48082dfdd19b	Anaco	Venezuela	VE	-64.4674203	9.429229699999999
003b494a74d2d85f	Santa Rosa	Ecuador	EC	-79.9668308	-3.4593888
003bde9b193b3b17	La Plata	Colombia	CO	-75.8942469	2.389011
003c45cb29d77515	Boqueron	Paraguay	PY	-60.9540073	-21.7449254
003cdabe792cb10e	Calarca	Colombia	CO	-75.640402	4.530357
003e7fe742b6b27a	Pirque	Chile	CL	-70.5883812	-33.6874736
003f97dd7a518791	Candelaria	Colombia	CO	-74.0728759	4.597014
00408836495a566e	Casilda	Argentina	AR	-61.1650211	-33.044522
0040f7fb6057703a	Esparza	Costa Rica	CR	-84.667374	9.9906919
004104c122aeebbd	Moreno	Argentina	AR	-58.791382	-34.6340099
00412d3d6cde22cc	Catia la Mar	Venezuela	VE	-67.04943779999999	10.5894439
004195560bd9e5fd	Yaguate	Dominican Republic	DO	-70.1798134	18.3360102
0041f06268543774	Placilla	Chile	CL	-71.1108273	-34.6337953
004240f60df38767	Ocumare Del Tuy	Venezuela	VE	-66.77521709999999	10.1175463
0042d7b71223f0b8	Villa Altagracia	Dominican Republic	DO	-70.17237159999999	18.6740775
004371141685ab26	Islas del Ibicuy	Argentina	AR	-58.8289611	-33.6610262
0044180c6370cf09	San Diego	Venezuela	VE	-67.9629552	10.2590131
004454cd0785a90b	Tibú	Colombia	CO	-72.73773299999999	8.642356
0045ea916cada8bc	Villa Alemana	Chile	CL	-71.3734096	-33.0476377
0046a7590cd06d60	Arroyo	United States	US	-120.5907252	35.1185868
0046bf5f60971c34	Ejido	Venezuela	VE	-71.24287369999999	8.5493413
0046f00c28538803	Riobamba	Ecuador	EC	-78.657192	-1.6562599
0047c84e70b9501b	Maturín	Venezuela	VE	-63.1914317	9.7333906
0047e3673df9779d	Guasca	Colombia	CO	-73.877402	4.867236
0048c212594c80de	Mar Azul	Argentina	AR	-57.0356671	-37.3425462
00491bfe0834f91f	Unión	Argentina	AR	-58.50398509999999	-34.5344282
004940260158a964	Lima	Argentina	AR	-59.1961093	-34.0447565
0049e4004a1ea19f	Curanilahue	Chile	CL	-73.3421243	-37.4762431
004a0e09152e93bd	Espinal	Colombia	CO	-74.9059759	4.1693045
004a66983c1cb12a	Sants	España	ES	2.1353154	41.3754373
004ad1e2734fc1e3	Santo Domingo Este	Dominican Republic	DO	-69.8255369	18.4893469
004b0baa7979aa88	Santa María	Argentina	AR	-66.0459116	-26.7035442
004b853c78703c20	Ciudad del Libertador General San Martín	Argentina	AR	-58.53709649999999	-34.5757521
004c90ba3f751571	Rosario Bajo	United States	US	-67.07326789999999	18.158496
004ca7d95173bf0d	Maipú	Argentina	AR	-68.7895478	-32.9584934
004cb8134119be83	Teno	Chile	CL	-71.1664033	-34.8702993
004da7ab4e8c1ab5	Independencia	Chile	CL	-70.6662915	-33.4133469
004ea55b013fa89f	Guatire	Venezuela	VE	-66.5381024	10.4578313
004ed43112a4cf6a	Cabimas	Venezuela	VE	-71.4692843	10.3895862
004fcdb07e398928	San Antonio	United States	US	-98.49362819999999	29.4241219
004fe39f34e6452f	Quilmes	Argentina	AR	-58.25460510000001	-34.7206336
0050158729aa2535	Guanare	Venezuela	VE	-69.72869279999999	9.0371279
0050d8e10826a5b2	San Rafael del Yuma	Dominican Republic	DO	-68.67525499999999	18.4296612
0050da5c433f1e1d	Vinateros	España	ES	-3.6453603	40.4046011
005151f517b0d4f1	Lakeland Heights	United States	US	-96.9819507	32.7229096
00524e195b1f2b8c	Salsipuedes	Argentina	AR	-64.29643349999999	-31.1368964
005279311d99e93c	Lampa	Chile	CL	-70.879328	-33.2827093
00528b8f7322ff9d	Nazca	Peru	PE	-74.9327583	-14.8358687
0052c07a6ff05646	Piñas	Ecuador	EC	-79.6825275	-3.680412
005371513d9d46fb	Piedecuesta	Colombia	CO	-73.053997999999993	6.991539
00538817286e4df9	Triana	España	ES	-6.0093952	37.3810861
00553ac914c68cd1	Coyhaique	Chile	CL	-72.068265	-45.5712254
005594b458d3d648	Aguachica	Colombia	CO	-73.611665	8.305925
0056e407d2094beb	Las Pedroñeras	España	ES	-2.6760251	39.4480026
00576d9415c4634b	Flores	Uruguay	UY	-56.8984566	-33.5169429
00577114384dea2b	Vicente López	Argentina	AR	-58.473816	-34.5281205
0057cf92684f8d26	Rionegro	Colombia	CO	-75.375085	6.144837
0057d03c6c22064c	San Javier	Argentina	AR	-59.93030820000001	-30.5795582
005814023d6d62bd	San Martín	Argentina	AR	-58.53709649999999	-34.5757521
00585da77f488367	Rafaela	Argentina	AR	-61.49164219999999	-31.2525979
0058b0cb7e695890	Petare	Venezuela	VE	-66.8061398	10.4775751
00592e0c5b0f4a82	Constanza	Dominican Republic	DO	-70.7376623	18.9114821
0059cfb95141a763	Ortíz	Venezuela	VE	-67.2907465	9.6201124
0059e970385f2633	Garzón	Colombia	CO	-75.6274679	2.195403
005ab0a577226d0f	Palacio	España	ES	-3.7143181	40.4163387
005b43116fa7e0c9	Río Acarigua	Venezuela	VE	-69.27285359999999	9.5166401
005b9f350cad74f6	Popayán	Colombia	CO	-76.6147395	2.4448143
005bf2190435cf68	Santiago de Surco	Peru	PE	-76.9918155	-12.1416088
005ca01756b27db6	Villa Gesell	Argentina	AR	-56.97141939999999	-37.2598939
005cf73d337f8fce	Quesada	Costa Rica	CR	-84.4356706	10.3270781
005d5532117f26e8	Santo Domingo Norte	Dominican Republic	DO	-69.90738879999999	18.5967399
005d6419620c37a6	Tovar	Venezuela	VE	-67.30862359999999	10.3801459
005ebcae757ae11d	Miramar	Argentina	AR	-57.8394498	-38.2703168
005ef29d79d0b45a	Río Gallegos	Argentina	AR	-69.2168291	-51.6230485
005fd8d279073e1f	Hutto	United States	US	-97.5466702	30.54269949999999
00604def69ec46a8	Baruta	Venezuela	VE	-66.8677563	10.4205866
006099b7317c8404	Lima	Peru	PE	-77.042754	-12.0463731
0060ebce4be75d6a	Copiapó	Chile	CL	-70.3321587	-27.3665763
0063f3fa733bd78d	San Pelayo	Colombia	CO	-75.8369139	8.959441900000002
006446967d46b032	Bellavista	Peru	PE	-77.10740129999999	-12.0570992
00661a64175b4a29	El Vigía	Venezuela	VE	-71.6554692	8.6144269
0066bf570bdaad34	El Bosque	Chile	CL	-70.67875029999999	-33.5589761
0066e3b369d7d5fc	Barranco	Peru	PE	-77.0221186	-12.1411508
00677a6154ac3141	Juan Antonio Sotillo	Venezuela	VE	-64.5029534	10.1599878
0067ac795cb0bcc9	San Bernardo	Chile	CL	-70.69873609999999	-33.5854485
0067b0fe02ca4aa9	San Pedro	Argentina	AR	-59.66286640000001	-33.6757835
00684828684a7213	Santa Elena	Ecuador	EC	-80.85938449999999	-2.2268901
0068a5de4770b829	Villa La Angostura	Argentina	AR	-71.6417984	-40.7627426
0069179054db3f51	Villa Maria del Triunfo	Peru	PE	-76.9201161	-12.1675125
00693447310e1120	Tocopilla	Chile	CL	-70.1930064	-22.0857976
006987c21503e409	Olimpo	United States	US	-66.1082211	18.0019099
00698a5d6382c442	Sincelejo	Colombia	CO	-75.39055669999999	9.3045773
00698bbe577bad5b	Medellín	Colombia	CO	-75.596392	6.268678
006a092d6ff7ab0c	Las Grutas	Argentina	AR	-65.0943303	-40.8108283
006a651d2450213d	Chigorodó	Colombia	CO	-76.67748999999999	7.665099000000001
006a7eea485e40d9	Charallave	Venezuela	VE	-66.8677563	10.2110018
006a80833658c159	Quilicura	Chile	CL	-70.72927179999999	-33.3576747
006adbbd091ec2cb	Florencia	Colombia	CO	-75.60423639999999	1.6153858
006b2a835a30b702	Estación Central	Chile	CL	-70.6990045	-33.4590774
006bc8f56fa2657a	San Vicente de Chucurí	Colombia	CO	-73.54996899999999	6.9360504
006da5224d296337	Madrid	Colombia	CO	-74.2627569	4.733779
006e2a61349d636d	Paute	Ecuador	EC	-78.7674562	-2.7957205
006f7bbe4ebdc958	Valeria del Mar	Argentina	AR	-56.8804518	-37.1450559
006f93a34802ce8b	Judibana	Venezuela	VE	-70.19023170000001	11.763662
006f9cc0d800e844	Hopelchén	México	MX	-89.8424644	19.7472419
006f9d216125f0b2	San Andrés	Colombia	CO	-81.7075787	12.5450153
006fa5d223223cfc	Táchira	Venezuela	VE	-72.1416132	7.9137001
00702afd4c2b8ca6	Bugalagrande	Colombia	CO	-76.155749	4.210851000000001
0070636f09b7081f	Loíza	United States	US	-65.87745	18.4298388
00707f3e5066afb7	Chiclayo	Peru	PE	-79.8549907	-6.7700798
00718cc859dbd3ba	Magangué	Colombia	CO	-74.7527587	9.2414156
0071eafc31ed5910	Diamante	Argentina	AR	-60.63787079999999	-32.0697098
00725fa332076edd	Valle de San José	Colombia	CO	-73.14378599999999	6.448144
00726d59158ac654	Loncoche	Chile	CL	-72.6315127	-39.3681199
00729cc2112bdaf3	Concón	Chile	CL	-71.51860649999999	-32.9299468
0073ab713749d553	Amambay	Paraguay	PY	-56.0249982	-22.5590272
007424993ff72d95	Puerto Iguazú	Argentina	AR	-54.578599	-25.5971635
00748b7a76cdeba7	Cerro Largo	Uruguay	UY	-54.1654081	-32.3769151
0074a55e0c29b3fb	Cota	Colombia	CO	-74.10312100000002	4.809271
0074c4a72c3cd6b8	Sabandia	Peru	PE	-71.46555649999999	-16.4544375
0074eb6428a60e30	Aysen	Chile	CL	-72.3007623	-46.378345
00758a48394df3ce	Villa Soldati	Argentina	AR	-58.442814	-34.6595958
0076c60705aaf75b	Isla Verde	United States	US	-66.0202023	18.4399019
0076d1e461d1ee75	National District	Dominican Republic	DO	-69.93121169999999	18.4860575
007766f968052684	Caicedonia	Colombia	CO	-75.827107	4.3329129
0077bf836cf2a6e4	La Mesa	Colombia	CO	-74.46301400000002	4.632147
0077cc1035dbc780	Soriano	Uruguay	UY	-58.21695599999999	-33.529522299999996
0077d2b864743a86	Esmeraldas	Ecuador	EC	-79.6517202	0.9681789
0079147013a9cd4f	Osorno	Chile	CL	-73.11494689999999	-40.5761897
00799e1a1b59b618	el Gotic	España	ES	2.178185	41.3819055
0079b17c6b71e4a4	Cipolletti	Argentina	AR	-67.9954929	-38.938771
0079bbc151fa56d2	Rosario	Argentina	AR	-60.69304159999999	-32.9587022
007abfdf46fda806	Barranca	Peru	PE	-77.7599218	-10.7525374
007b08133230a44a	Dajabón	Dominican Republic	DO	-71.7086514	19.5499241
007c47f14d165967	Luperón	Dominican Republic	DO	-70.9613064	19.8935957
007d375579cdad52	Villa De Cura	Venezuela	VE	-67.4933707	10.0313499
007d411461121a98	Maiquetia	Venezuela	VE	-66.97821019999999	10.5971386
007e57702b77b3d6	Vinces	Ecuador	EC	-79.7624177	-1.553873
007e61de7742e73d	Las Heras	Argentina	AR	-68.8337505	-32.8420011
007f02f20b6500d1	Tacarigua	Venezuela	VE	-67.9157506	10.0854241
007f6a4e25f085c1	Huaral	Peru	PE	-77.21177329999999	-11.4965172
007fc5ae0f0698dc	Puchuncaví	Chile	CL	-71.4117004	-32.722005
0081a4b50a833f88	General Las Heras	Argentina	AR	-58.94670399999999	-34.9267359
0081d5d90d3a96ec	Rancho Arriba	Dominican Republic	DO	-70.4463724	18.6969767
00839675b5d53010	Pinseque	España	ES	-1.0999358	41.7373609
0083994c61335f54	El Calafate	Argentina	AR	-72.2647982	-50.337969
0083afe8571bb1e6	Santa Lucía	Argentina	AR	-59.1009032	-28.9820202
0083e91b64f919f4	Palmira	Colombia	CO	-76.2971657	3.5379718000000002
0085b01d4f65f576	Salta	Argentina	AR	-65.4231976	-24.7821269
0086126d0a893d08	Surquillo	Peru	PE	-77.012222	-12.1122464
008677a973531707	Sogamoso	Colombia	CO	-72.93112889999999	5.7160848
0086c37e4416111e	San Isidro	Argentina	AR	-58.5286102	-34.470829
0087071319ddb3fe	Sabaneta	Colombia	CO	-75.61681999999999	6.1505589999999994
008755162e96a0d1	El Guabo	Ecuador	EC	-79.8184684	-3.2368706
0087b63b6d0dfb88	Sandoná	Colombia	CO	-77.472045	1.28326
0087d92416ce3280	Alderetes	Argentina	AR	-65.1333313	-26.8166695
00882e30372d2e93	Puerto General San Martin	Argentina	AR	-60.73146129999999	-32.7161131
008a9ba63cfef4a4	Treinta y Tres	Uruguay	UY	-54.357647299999996	-33.229046
008aaaeb46e1c2f0	Cerrillos	Chile	CL	-70.7108995	-33.5041325
008af77d1b1cf7a3	Anzoátegui	Venezuela	VE	-63.95861110000001	8.5913073
008ba0466750b9fb	Carolina	United States	US	-65.9630925	18.3736316
008be613029d4ca5	Viña del Mar	Chile	CL	-71.55002759999999	-33.0153481
008c028a73321273	Pachacamac	Peru	PE	-76.8538748	-12.2095337
008c119c0dda62fe	Nilo	Colombia	CO	-74.619935	4.307339
008c97514d5ef4da	San isidro	Peru	PE	-77.0400804	-12.0952651
008ca16f4db16107	Curacaví	Chile	CL	-71.1267263	-33.4009037
008cea206884906b	Valera	Venezuela	VE	-70.60329949999999	9.3191109
008db04b585e0046	Cogua	Colombia	CO	-73.97640799999999	5.061241
008dbbd43cad1403	Cicuco	Colombia	CO	-74.64532	9.276819999999999
008e978e71000f72	Constitución	Chile	CL	-72.41669999999999	-35.33330000000001
008eb02a542ac3d4	Nuestra Señora del Rosario de Baruta	Venezuela	VE	-66.8677563	10.4205866
008ee35d0f80ef5d	Coronel	Chile	CL	-73.1404838	-37.0340769
008ef1de1380a810	Cartago	Colombia	CO	-75.91162890000001	4.747221199999999
008ff98253f97bad	Puerto Tejada	Colombia	CO	-76.415465	3.22059
009026cf352d7a64	El Agustino	Peru	PE	-76.99117199999999	-12.0325966
00914f80743a0863	Monagas	Venezuela	VE	-63.0147578	9.3241652
0091540a0e7926ce	Claromecó	Argentina	AR	-60.074066	-38.8553243
0091aa1528882ccc	Boconó	Venezuela	VE	-70.2497616	9.2534438
0091c1ce53e1555d	La Paz	Colombia	CO	-73.57585	6.189809899999999
0091fbb6411059dd	Amazonas	Venezuela	VE	-65.0957792	2.8101413
00921cea7485fb90	Penco	Chile	CL	-72.9833	-36.7333
0092e0b22d58b611	La Unión	Chile	CL	-73.07932799999999	-40.2952749
009360ab49286b4a	Cereté	Colombia	CO	-75.789633	8.888785
00938c431e3782f2	Coquimbo	Chile	CL	-71.3389183	-29.9590009
0093a5dd1242be45	Santiago	Dominican Republic	DO	-70.6930568	19.4791963
0094bb312695c18f	San Pedro	Costa Rica	CR	-84.0511025	9.9301517
0095324e41b821af	Toay	Argentina	AR	-64.3793694	-36.674059
00957bfd37f2ff45	el Parc i la Llacuna del Poblenou	España	ES	2.1904564	41.3990625
0096220c798886ce	Barinas	Venezuela	VE	-70.2371045	8.6231498
0096638f7b8140f6	San José de Ocoa	Dominican Republic	DO	-70.5041816	18.543858
0096993c660d6682	Granada	Colombia	CO	-73.705281	3.544831
00972cdc6afa8745	Atocha	España	ES	-3.6881569	40.4023449
00979eca2933805c	Laguna Salada	Dominican Republic	DO	-71.0943459	19.6457506
00980b8527832b2e	Goya	Argentina	AR	-59.2643242	-29.1442242
00982120172dd83a	Delta Amacuro	Venezuela	VE	-61.14031960000001	8.8499307
0098512649aba858	Puerto Octay	Chile	CL	-72.8819616	-40.9768373
009924a469d7ace1	Guayaquil	Ecuador	EC	-79.8890662	-2.1894128
0099e2f90138436f	Arauco	Chile	CL	-73.3166644	-37.2457765
009b71fa17159ccc	Canelones	Uruguay	UY	-56.2873482	-34.5291043
009bffed2486be17	Puente Alto	Chile	CL	-70.5906057	-33.6186082
009d488e7cc85c0e	Federación	Argentina	AR	-57.91984170000001	-30.9850361
009e5a7077e5bbe6	Rivadavia	Argentina	AR	-67.4822429	-45.8656149
009e6b0e445977d6	Barinas	Venezuela	VE	-70.2371045	8.6231498
00a0366f1f6cd7ff	Cúcuta	Colombia	CO	-72.4966896	7.8890971
00a0e7da00a9a84e	Canindeyu	Paraguay	PY	-55.6689636	-24.1378735
00a152641d029c15	El Tambo	Peru	PE	-77.02718639999999	-12.1251305
00a20d2d51b91b78	Colina	Chile	CL	-70.6759654	-33.2045451
00a2a42766e402f5	Carache	Venezuela	VE	-70.2318825	9.626362799999999
00a31b1d78184268	San Tome	Venezuela	VE	-64.13007910000002	8.9415295
00a365fe160b9178	Río Hondo	Argentina	AR	-64.8605362	-27.4985572
00a3d3b661417a32	Barrancabermeja	Colombia	CO	-73.8519319	7.0617085
00a458973956b810	Hatillo	United States	US	-66.76792619999999	18.482163
00a50aa95099b127	La Rioja	Argentina	AR	-66.8564579	-29.4134538
00a566b524a6764d	General Pico	Argentina	AR	-63.75778869999999	-35.6593239
00a6a5be37b7996b	Arroyo Seco	Argentina	AR	-60.51299059999999	-33.1564137
00a6d4e65406d532	Carabayllo	Peru	PE	-77.0233781	-11.8818631
00a709f02990ba6a	Hualhuas	Peru	PE	-75.2535674	-11.9720885
00a8405a50f2dd12	San Clemente del Tuyú	Argentina	AR	-56.7185135	-36.3688312
00a8d523465806f4	Colón	Argentina	AR	-58.1447142	-32.2249328
00a961d91f76dde8	Corrientes	Argentina	AR	-58.8306349	-27.4692131
00aadc5551cd4446	Caleta Olivia	Argentina	AR	-67.5171533	-46.4425647
00aae48175646039	Punta Arenas	Chile	CL	-70.9170683	-53.1638329
00ab08eef1b62e92	Las Palmas de Gran Canaria	España	ES	-15.4362574	28.1235459
00ab3d5d265cc6d9	La Granja	Chile	CL	-70.62067800000001	-33.53779310000001
00abdf661dde7469	Vaqueros	Argentina	AR	-65.40979	-24.69454
00abe4864618d178	El Playón	Colombia	CO	-73.203211	7.470498
00ad844636ad8bc0	Huanuco	Peru	PE	-76.24326529999999	-9.9298454
00ae041548637c93	Concepcion	Paraguay	PY	-57.43444509999999	-23.4214264
00ae0df24e0f83c2	Concordia	Argentina	AR	-58.01743399999999	-31.3913921
00ae6c637075843b	Marga-Marga	Chile	CL	-71.2399037	-33.1065458
00aecc853a5cea98	Trelew	Argentina	AR	-65.30763510000001	-43.2493016
00af62de7c9457c0	Plottier	Argentina	AR	-68.22885	-38.9475672
00afc86269a0cd15	Añasco	United States	US	-67.138706	18.2868761
00b0c29e013c6483	Coto Norte	United States	US	-66.4398929	18.4307804
00b14c3574a8d937	Río Chico	Argentina	AR	-71.1431496	-48.12566469999999
00b15a7234d4cb8a	L'Aldea	España	ES	0.6186663	40.7455735
00b19b974fd465ae	Los Polvorines	Argentina	AR	-58.6914464	-34.4996258
00b24de733946444	Trujillo Alto	United States	US	-66.0033838	18.3563169
00b2fd76465a0708	Juayua	El Salvador	SV	-89.74386349999999	13.8432311
00b3966d242a4754	Batán	Argentina	AR	-57.709166	-38.0061494
00b3f87e1966f2df	Tábara Arriba	Dominican Republic	DO	-70.8788845	18.5692501
00b3fc8c4487f71e	San Fernando	Argentina	AR	-58.55796429999999	-34.4430618
00b466c245e49e66	San José del Rincón	Argentina	AR	-60.5833282	-31.6000004
00b46e6ade4e064a	Chalma	México	MX	-98.3977699	21.2074569
00b4d10d3be10c85	Río Tercero	Argentina	AR	-64.1130995	-32.1766541
00b55c021363d97d	Tabio	Colombia	CO	-74.096358	4.916962
00b596506d9933be	Rancagua	Chile	CL	-70.7406259	-34.17013240000001
00b5965621880c8a	Coronel de Marina Leonardo Rosales	Argentina	AR	-61.84092140000001	-38.8682889
00b59ab25f8a6359	Brandsen	Argentina	AR	-58.2373784	-35.1679518
00b62c7d4e24b866	San Lorenzo	Argentina	AR	-60.73567540000001	-32.747416
00b6e714281032b2	Toa Baja	United States	US	NA	NA
00b6f2602d1b1d6c	Tocancipá	Colombia	CO	-73.9108229	4.965002
00b714cf313be8ee	Cunco	Chile	CL	-72.0279843	-38.9320562
00b74aaa6770240a	Marcos Juárez	Argentina	AR	-62.10579789999999	-32.6978556
00b771ba4928f24a	Neembucu	Paraguay	PY	-57.825395	-27.0299114
00b794ef251ec433	La Pintana	Chile	CL	-70.6285838	-33.5855661
00b8191d4f081918	Quebrada Seca	United States	US	NA	NA
00b8921442048946	Puerto Boyacá	Colombia	CO	-74.593395	5.977237
00b97a417adff7d4	Machiques	Venezuela	VE	-72.5500596	10.0605329
00b9b6e734ad1849	Chorrillos	Peru	PE	-77.0074502	-12.1848841
00ba788458374b73	Quibdó	Colombia	CO	-76.649812	5.695633
00ba91045bd853c2	Venado Tuerto	Argentina	AR	-61.9690161	-33.7455566
00bb690768709461	Quillota	Chile	CL	-71.2497156	-32.8803027
00bba9de7aeaf9a9	El Chaco	Ecuador	EC	-77.8095661	-0.3376323
00bbba68c4faa55a	Nava de Roa	España	ES	-3.9655245	41.6133952
00bc1ad414ce4f99	Villarrica	Paraguay	PY	-56.4495924	-25.7760619
00bc1c8a723e53fc	El Paraiso	United States	US	-122.2083653	47.9804749
00bd40b858c6faef	San Martin de Porres	Peru	PE	-77.096882	-11.9815573
00bea9735063bdba	Galapa	Colombia	CO	-74.88382299999999	10.898923
00bf27cc533bce39	Calleria	Peru	PE	-74.54486349999999	-8.3792869
00bf69577e0ddb06	Fray Luis Beltrán	Argentina	AR	-60.73332980000001	-32.783329
00c024b72a186eef	Chañaral	Chile	CL	-70.624193	-26.3450046
00c0989c58e41cac	Río San Juan	Dominican Republic	DO	-70.0711548	19.6398565
00c1fa062323b8ca	Talcahuano	Chile	CL	-73.1169808	-36.7247834
00c2ef6422545045	Villa Allende	Argentina	AR	-64.3002319	-31.3000507
00c357790d337a52	Valle De La Pascua	Venezuela	VE	-65.9794807	9.2217178
00c368fe087d1220	Montalbán	Venezuela	VE	-68.310079	10.1991197
00c4b64e7affea25	Las Condes	Chile	CL	-70.5573124	-33.3989812
00c524307fc70d0b	Los Andes	Chile	CL	-70.59721789999999	-32.8337995
00c6413a415bcb7c	Capilla del Señor	Argentina	AR	-59.101039	-34.29266
00c6d37a4dec6abf	San Joaquín	Venezuela	VE	-67.80225159999999	10.2599107
00c77f9d025ab29a	Envigado	Colombia	CO	-75.5836963	6.167286499999999
00c8418a56fd2bd3	el Fort Pienc	España	ES	2.181871000000001	41.3981098
00c84cd5705511af	Curití	Colombia	CO	-73.06924099999999	6.604594
00c8968a7faae13d	25 de Mayo	Argentina	AR	-60.1716334	-35.4324208
00c8eceb54101f18	Almendrales	España	ES	-3.6990948	40.3837379
00cb221852cc9bc8	Barinitas	Venezuela	VE	-70.401535	8.7548237
00cbad4318310a30	Cartago	Costa Rica	CR	-83.91619349999999	9.8638091
00cc425c0e36a8d2	San Carlos	Chile	CL	-71.97083429999999	-36.42615
00cc64bf0c951160	Floridablanca	Colombia	CO	-73.1069693	7.0723921
00ccd4d801f7b0aa	Maicao	Colombia	CO	-72.2485171	11.3789335
00ccde463aac66d2	Berisso	Argentina	AR	-57.88371729999999	-34.8730675
00ce717e487e5941	Illapel	Chile	CL	-71.1653	-31.6308
00ce7ffa1ac3dcba	Altamira	Colombia	CO	-75.787545	2.063112
00ce9acc67f2d4bf	Jose Leonardo Ortiz	Peru	PE	-79.84648039999999	-6.7448809
00cf556a6ce23d48	Aluche	España	ES	-3.758293699999999	40.3924334
00cfa39123e9d82c	Tenares	Dominican Republic	DO	-70.3420209	19.3775908
00cfdfc429c27ec3	San Juan De Los Morros	Venezuela	VE	-67.36145859999999	9.9126704
00cfeab22d069810	Villa Nueva	Argentina	AR	-63.2480859	-32.4356257
00cffb6e3ed55b34	Medina	Colombia	CO	-73.349853	4.508399
00d04bd079f9d504	Villa de Leyva	Colombia	CO	-73.527058	5.636499
00d121ae37daf9e8	Renca	Chile	CL	-70.7279965	-33.4063601
00d12b3047562ef9	Castillo	Dominican Republic	DO	-70.02798390000001	19.2072914
00d15fc77c95c656	Olmué	Chile	CL	-71.1812984	-32.9958297
00d190242beeb21d	Saravena	Colombia	CO	-71.87259499999999	6.956106999999999
00d371141ef4aa01	Curaco de Vélez	Chile	CL	-73.60370689999999	-42.4405468
00d497c17a5f94de	Independencia	Venezuela	VE	-69.2900815	10.0768804
00d4c96340b51581	Mendiolaza	Argentina	AR	-64.3000107	-31.2666702
00d56adc79da66a3	San Juan	Argentina	AR	-68.5385941	-31.5351074
00d5b5a937a0916d	Grocio Prado	Peru	PE	-76.18996609999999	-13.3577348
00d5bffa5b6661ca	Vargas	Venezuela	VE	-66.7367345	10.5890015
00d669c0219eb59c	Ovalle	Chile	CL	-71.19698819999999	-30.604304
00d6d9807d7f9414	Monteros	Argentina	AR	-65.4963303	-27.1639576
00d8a8dc3fc2de9d	Villaguay	Argentina	AR	-59.0269219	-31.8677008
00d9c9103a0fbacf	San Pedro de Macorís	Dominican Republic	DO	-69.3051234	18.46266
00d9f2a0461c2bc4	Tinaquillo	Venezuela	VE	-68.3076366	9.9128832
00d9f97c5e624abf	Sant Gervasi Galvany	España	ES	2.1431958	41.3988942
00da7cec74df27ff	Neuquén	Argentina	AR	-68.0591888	-38.9516784
00da823773feadb6	Rocha	Uruguay	UY	-54.3307438	-34.4809769
00dc61e67eceda5b	Lorica	Colombia	CO	-75.81362450000002	9.2376398
00dc8225055a8fdc	La Serena	Chile	CL	-71.2519374	-29.9026691
00dcfd0a63c68c5f	Sunampe	Peru	PE	-76.1637215	-13.4273624
00dd051c4ae032b0	Guarenas	Venezuela	VE	-66.6163401	10.4714668
00dde8db67eebcf8	Resistencia	Argentina	AR	-58.98555469999999	-27.4518622
00de1fcc6d582e3c	Punto Fijo	Venezuela	VE	-70.1813018	11.711511
00de77ab381f5ae2	Llaillay	Chile	CL	-70.956166	-32.8409806
00deb766245f441c	San Jose	Costa Rica	CR	-84.0907246	9.9280694
00dec776371a8365	Yaracuy	Venezuela	VE	-68.81088489999999	10.339389
00e03d61002c8a01	La Calera	Argentina	AR	-64.3401296	-31.35255859999999
00e11efc7d8af348	Los Vilos	Chile	CL	-71.5112017	-31.9121865
00e20cd8556f7524	Cayma	Peru	PE	-71.5427212	-16.3426764
00e2690e427c911f	Puerto Ordáz	Venezuela	VE	-62.6496813	8.3663119
00e322460b3f03b5	Macul	Chile	CL	-70.5992005	-33.4851471
00e4140c62aa4105	Puerta del Ángel	España	ES	-3.730815199999999	40.4094474
00e4885c7ea8eb39	Chascomús	Argentina	AR	-58.0136464	-35.5776723
00e4f35c3df13130	Cardón	Venezuela	VE	-70.20511479999999	11.6481819
00e5008a7b266c42	Los Alcarrizos	Dominican Republic	DO	-70.0205404	18.5241872
00e55555702fc433	Melgar	Colombia	CO	-74.643383	4.203571999999999
00e601100ad1348d	Alameda de Osuna	España	ES	-3.5948802	40.4561778
00e76e555d21231b	La Asunción	Venezuela	VE	-63.85814850000001	11.028458
00e76fbf0a273ce5	Valdivia	Chile	CL	-73.2452103	-39.8195857
00e7ab373bbd3707	Lara	Venezuela	VE	-69.8597406	10.1537842
00e7d61103eddf2e	Moca	United States	US	-73.1140921	42.7014557
00e8351e72a9ecf1	Santo Tomás	Colombia	CO	-74.75649899999999	10.763286
00e835a52ac4d08c	Turbaco	Colombia	CO	-75.412672	10.334638
00e934ca5bc48cb6	Hurlingham	Argentina	AR	-58.62755019999999	-34.589571
00ea87127fecbc28	Carora	Venezuela	VE	-70.073769	10.1814384
00eab2a83ffcabc1	Cortes	España	ES	-3.6999409	40.4142211
00eacabc1e5298db	José Carlos Paz	Argentina	AR	-58.7662461	-34.5151052
00eacd9e4c340449	Turmero	Venezuela	VE	-67.4858429	10.2151672
00eae3fa591bc69e	Tres Arroyos	Argentina	AR	-60.27522949999999	-38.3775437
00eb7f1f40e46842	Mosquera	Colombia	CO	-74.22939199999999	4.6771479
00ebb51960e7a91c	Samaná	Dominican Republic	DO	-69.3387664	19.2030757
00ec4c32070f5076	Caracas	Venezuela	VE	-66.90360629999999	10.4805937
00ecda16128d37a6	Manaure	Colombia	CO	-72.444227	11.772778
00ed14664941e709	Banda	Argentina	AR	-64.24248039999999	-27.3618
00ed86466c568701	Motatán	Venezuela	VE	-70.5934229	9.3930767
00edc730631233bd	Chicligasta	Argentina	AR	-65.80850490000002	-27.263788
00ee7aee7d415bd9	Sabana de Torres	Colombia	CO	-73.500055	7.394791999999999
00ef60bb0d238e05	Naguanagua	Venezuela	VE	-68.0179418	10.2683199
00ef69b94937c046	Rumiñahui	Ecuador	EC	-78.533333	-0.6333329999999999
00f003bb725d4e02	La Victoria	Venezuela	VE	-67.326501	10.218625
00f0e504096891cc	Funes	Argentina	AR	-60.81081229999999	-32.916996
00f2d1d75e270570	Jauja	Peru	PE	-75.4869033	-11.7806236
00f2e7a217add5f2	la Dreta de l'Eixample	España	ES	2.1699272	41.3991535
00f3a589100afd69	Chepen	Peru	PE	-79.42882569999999	-7.2271893
00f3ce1164b089ef	Ricaurte	Colombia	CO	-74.77230500000002	4.277309
00f4a3c038acc3c5	Daule	Ecuador	EC	-79.97766899999999	-1.86218
00f51cb7429115b0	Piura	Peru	PE	-80.6548882	-5.1782884
00f574b925c8e22a	Salamanca	Chile	CL	-70.96071049999999	-31.782493
00f595517fcd1978	Naiguata	Venezuela	VE	-66.739712	10.6181274
00f61b106b82ff87	Agua de Oro	Argentina	AR	-64.3003714	-31.0621897
00f6b5cf7c1767b1	Bahía Blanca	Argentina	AR	-62.2663478	-38.7183177
00f6ff2f60237910	Lagunillas	Venezuela	VE	-71.1448516	10.1901874
00f7750f78431b5e	San Antonio del Táchira	Venezuela	VE	-72.4425819	7.8178141
00f84d414936f28e	Córdoba	Argentina	AR	-64.1887761	-31.42008329999999
00f86d2258695986	Atahualpa	Ecuador	EC	-79.65863089999999	-3.590520799999999
00f8a8792e1528ec	San José de Guanipa	Venezuela	VE	-64.17438229999999	8.8942524
00f96e4b5460a323	Vallenar	Chile	CL	-70.7571009	-28.5757953
00f992c6507c1e4e	San Salvador	El Salvador	SV	-89.2181911	13.6929403
00fb0fc66a6dde3f	La Florida	Chile	CL	-70.5987142	-33.5226882
00fb14e31bcff23d	Yaritagua	Venezuela	VE	-69.1191154	10.0763215
00fb387925c66cbb	La Romana	Dominican Republic	DO	-68.9658817	18.4338645
00fe020067104059	Cómbita	Colombia	CO	-73.323263	5.634202
00fe503e330c0489	Ibagué	Colombia	CO	-75.24243799999999	4.444675999999999
00fe8b875d516886	Pamplona	Colombia	CO	-72.6503369	7.378229999999999
00fef4361f2ad538	Nueva Esparta	Venezuela	VE	-63.91132959999999	10.9970723
00ff7f7e157dcfcb	Río Grande	United States	US	-101.259159	29.521204
01000b6c15928027	Juliaca	Peru	PE	-70.12965299999999	-15.4996879
0100789d0c41147f	Falcón	Venezuela	VE	-69.8597406	11.1810674
0100fabde90b21cd	Lourenzá	España	ES	-7.3005438	43.4721015
0101525d656f78f9	San Miguel	Argentina	AR	-58.7118577	-34.543055
0101e9c417ecd4e9	Puerto Plata	Dominican Republic	DO	-70.6871091	19.7807686
010253bf339b3e84	Curicó	Chile	CL	-71.2528803	-34.9779853
010258665cac5a26	Misiones	Paraguay	PY	-57.10131879999999	-26.8433512
0102ad174b53ee76	el Guinardo	España	ES	2.1722718	41.4189505
01030be40ff4ff39	Sahagún	Colombia	CO	-75.44600100000001	8.950643
01031b4e3a59a21a	San Esteban	Chile	CL	-70.5798032	-32.8004995
01031ef97be7f374	San Carlos	Venezuela	VE	-68.5812895	9.6598946
010381b949e6e393	Blida                                                                                               	Algérie	DZ	2.8297576	36.4757929
01039e6150742f01	Cariló	Argentina	AR	-56.8993073	-37.1615028
0103d4375c78ffad	Higüey	Dominican Republic	DO	-68.71544999999999	18.6127833
0104104947f7337b	Pergamino	Argentina	AR	-60.5745999	-33.8912831
010416b434768b1c	Acarigua	Venezuela	VE	-69.1804708	9.5503646
01049e8c1d320745	Cruz Alta	Argentina	AR	-61.8094146	-33.0072364
0104f21930c30f5c	San Martín de los Andes	Argentina	AR	-71.3524436	-40.1572103
01055c04268d0326	Machala	Ecuador	EC	-79.9553924	-3.2581112
0105a80417c159b4	Barranquilla	Colombia	CO	-74.80698129999999	11.0041072
0105c13a2f0c582b	Sabanagrande	Colombia	CO	-74.755201	10.789771
010645a573179472	Limón	Costa Rica	CR	-83.04150779999999	9.9913106
0106c78409c9a674	Betania	Colombia	CO	-75.977569	5.746649
01074fd9540922ec	Codegua	Chile	CL	-70.67286410000001	-34.0370319
0108232378a6d764	Puerto Madryn	Argentina	AR	-65.0317175	-42.7694476
0108423a421615e0	Recreo	Argentina	AR	-65.0583849	-29.2781887
01087f69071d020f	Tonacatepeque	El Salvador	SV	-89.11937689999999	13.7809407
0108c69f708ae783	Avellaneda	Argentina	AR	-58.3669739	-34.6610756
0108cb796c965852	Cusco	Peru	PE	-71.96746259999999	-13.53195
0109443e0b9b6b54	Lebrija	Colombia	CO	-73.29591289999999	7.233636
01095dea21538f8b	General Rodríguez	Argentina	AR	-58.95432650000001	-34.6083013
01099ab0247833ad	Arequipa	Peru	PE	-71.53745099999999	-16.4090474
0109cf8b01b3c998	Tocuyito	Venezuela	VE	-68.0815669	10.1068596
0109d417664af7f4	San Miguel De Urcuqui	Ecuador	EC	-78.19411219999999	0.420038
010a74892213c898	Chillán	Chile	CL	-72.10233509999999	-36.6062618
010af3a83e5ba035	Recoleta	Chile	CL	-70.6427181	-33.3967132
010b607c420a4ba7	Ambato	Ecuador	EC	-78.62285039999999	-1.2543408
010b889821a97b94	Quellón	Chile	CL	-73.6138821	-43.1169327
010b954508525936	Sauce Viejo	Argentina	AR	-60.83624259999999	-31.7721975
010bd56656b81e0f	Jujutla	El Salvador	SV	-89.86103179999999	13.7853649
010c81826d541968	Boavita	Colombia	CO	-72.583418	6.331521
010ce9db1e79ac39	Pasaje	Ecuador	EC	-79.8056661	-3.3259044
010d7db066434a8a	Mar del Plata	Argentina	AR	-57.5426106	-38.0054771
010dfcbf7c09b943	Santa Lucía	Venezuela	VE	-66.6414616	10.3300103
010e65290a67317d	Quinta Normal	Chile	CL	-70.6923917	-33.4317378
010e977336e5aae9	Humacao	United States	US	-65.8203943	18.1551337
010e9b9269df1e78	Sahuarita	United States	US	-110.955646	31.9575818
010eed2c19097e8c	Canoas De Punta Sal	Peru	PE	-80.9428911	-4.059368
010fd77520d2d48a	Cartagena	Colombia	CO	-75.4794257	10.3910485
0110caab50ee04c3	Pinamar	Argentina	AR	-56.86070549999999	-37.1145662
011231ce0bf557b2	Antiguo Cuscatlan	El Salvador	SV	-89.25147179999999	13.6756725
0112696c79cdbfe5	Guamo	Colombia	CO	-74.974795	4.02926
0112ed2538dfc334	Escazu	Costa Rica	CR	-84.14615189999999	9.920695
0112feccaa4b8d6f	Camarma de Esteruelas	España	ES	-3.3766851	40.5474107
0113747966068613	Maipú	Chile	CL	-70.7572607	-33.5105866
011400155f5b72a2	Zipaquirá	Colombia	CO	-73.990955	5.021476
011414a21b34d6c2	Hijuelas	Chile	CL	-71.1463438	-32.7986559
01141e434906e058	La Molina	Peru	PE	-76.928234	-12.0820196
01142991608cf0b3	Villa el Fachinal - Parque Norte - Guiñazú Norte	Argentina	AR	-67.5440144	-54.8679213
011455904ec2ab81	Lince	Peru	PE	-77.03564519999999	-12.0848154
0114727642b6d1dd	Lavalleja	Uruguay	UY	-55.2371458	-34.3743239
0114966a7365a447	Portoviejo	Ecuador	EC	-80.4524903	-1.054723
0114e4916d60be34	Perez	Argentina	AR	-60.77316859999999	-32.9991405
0115096e48a23c32	Fusagasugá	Colombia	CO	-74.361823	4.345152
0115394f017772df	Cagua	Venezuela	VE	-67.45761089999999	10.1756523
01153d1b33e1641b	Tigre	Argentina	AR	-58.57965850000001	-34.425087
01157a53721bef6a	Santo Tomé	Argentina	AR	-56.0452135	-28.5524101
0116822976069bc9	General San Martín	Argentina	AR	-58.53709649999999	-34.5757521
0116b409205a5237	Dosquebradas	Colombia	CO	-75.68056779999999	4.8318256
011746fd707b3b1b	Lima	Peru	PE	-77.042754	-12.0463731
0117fca202c122a4	San Pedro	Paraguay	PY	-56.56164700000001	-24.1948668
011932b747a077bc	Villavicencio	Colombia	CO	-73.63769049999999	4.1513822
0119603033586271	Chajarí	Argentina	AR	-57.99161909999999	-30.7572746
0119b3290be52a69	San Gil	Colombia	CO	-73.13412	6.554824
011a16c56feb41c3	Florencio Varela	Argentina	AR	-58.27601199999999	-34.7965806
011abdad7dddec83	San Carlos de Bariloche	Argentina	AR	-71.3102778	-41.1334722
011b0c535eef38ac	Cabudare	Venezuela	VE	-69.2507123	10.0230722
011b1b1c24d6c193	Playa Unión	Argentina	AR	-65.0463462	-43.3177467
011b3bd769a19b7b	Girón	Colombia	CO	-73.1692652	7.073967799999999
011b60bc40869639	Cajicá	Colombia	CO	-74.024773	4.917530999999999
011b75ba033ea9c2	Barrancas	Colombia	CO	-72.795543	10.9556419
011e26fa5f2d5c3c	Coello	Colombia	CO	-74.897875	4.286261
011e3b0b13dcd02f	Zorritos	Peru	PE	-80.67985209999999	-3.6817005
011eda3559cd03c8	Palo Negro	Venezuela	VE	-67.5529725	10.1615136
011f2fb160ca6b79	El Carmen de Atrato	Colombia	CO	-76.14219899999999	5.900621
012040fe6b14fab3	Tena	Ecuador	EC	-77.81360350000001	-0.9962972000000001
0120552e0028d314	Las Toninas	Argentina	AR	-56.6931113	-36.4870244
0120a4ce3ad972e6	Yotoco	Colombia	CO	-76.38463	3.860273
0120f5a9772f6c6d	Mostazal	Chile	CL	-70.5740886	-33.9497607
01216a951cc207a2	Comandante Fernández	Argentina	AR	-60.4892292	-26.7387269
0121aea503f5101e	Rubio	Venezuela	VE	-72.36071079999999	7.698857899999999
01222aa54e8dff7a	La Guaira	Venezuela	VE	-66.9313444	10.6024787
01229a900036141c	Chimbarongo	Chile	CL	-71.04127129999999	-34.70924
0125e2c6210e06c0	Dr. Manuel Belgrano	Argentina	AR	-65.42822009999999	-24.0927333
01265d8c62a2c72f	Rivera	Uruguay	UY	-55.5469032	-30.9178625
0126be19295d0a34	Arjona	Colombia	CO	-75.347308	10.252471
0126d6553a16d9fd	Piura	Peru	PE	-80.6548882	-5.1782884
0126ed8d45927fa1	Tandil	Argentina	AR	-59.1367167	-37.3287999
01271500226b2b27	Píritu	Venezuela	VE	-65.0394139	10.0566953
012733ed454056c3	El Tocuyo	Venezuela	VE	-69.7942195	9.783591999999999
0127ef192251650c	Santa Rosa de Cabal	Colombia	CO	-75.62239	4.870121
01280b6b5c822c69	La Vega	Dominican Republic	DO	-70.52389480000001	19.2188547
0128889e6fd437a5	Mao	Dominican Republic	DO	-71.0803291	19.558252
0128fab5ba6d2cd6	Tampico	México	MX	-97.861099	22.2331041
012a2e4748264e04	Diagonal Norte	Argentina	AR	-58.37894399999999	-34.6050934
012a97e00aba1e81	Ituzaingó Centro	Argentina	AR	-58.6753978	-34.6570243
012a9ff7509f33b5	Sucre	Venezuela	VE	-63.297505	10.4055886
012af435641420c7	Valencia	Venezuela	VE	-67.9972104	10.1579312
012b118d195d6e34	Lares	United States	US	-121.8514979	39.8016401
012b6b2c110f0c21	Barquisimeto	Venezuela	VE	-69.3473509	10.0677719
012bd3d0799fe724	Villa del Rosario	Colombia	CO	-72.46968970000002	7.8437879
012c447f4ce72363	Heredia	Costa Rica	CR	-84.1197643	9.9981413
012c54302d3a4cf2	La Esperanza	Peru	PE	-79.0614895	-8.0647013
012c60946910a407	Padre Las Casas	Chile	CL	-72.5989708	-38.7682352
012d194b2cee2666	Concepcion	Paraguay	PY	-57.43444509999999	-23.4214264
012d990d01245eb6	l'Antiga Esquerra de l'Eixample	España	ES	2.1595402	41.3882117
012d9a8d4001c284	Valledupar	Colombia	CO	-73.2436335	10.4742449
012dc7c37597fabe	Corozal	United States	US	-66.3280637	18.3447444
012e7f8c2181aefd	El Colmenar	Argentina	AR	-65.1867372	-26.7902161
012ffa1d2dc9de96	Quintero	Chile	CL	-71.5333	-32.7723101
013012227b3af0bb	Morovis	United States	US	-66.4065592	18.325785
013044056c4adf51	Monte Grande	Argentina	AR	-58.4620124	-34.8271786
0130b8ae2d6a51c2	Huasca de Ocampo	México	MX	-98.5754259	20.2040455
0130e1a0365bcf50	Apartadó	Colombia	CO	-76.624692	7.882760999999999
013138860507f652	Santa Justa y Rufina	España	ES	NA	NA
0131c5a307c48e02	Sabana Libre	Venezuela	VE	-70.6484471	9.3393473
0132326247153554	La Cruz	Chile	CL	-71.2273055	-32.8258069
0132f0f522427343	Alto Hospicio	Chile	CL	-70.10491689999999	-20.2686722
0133704226e1257e	San Andrés de Giles	Argentina	AR	-59.44724660000001	-34.4429759
013379ee5729a5e6	Tucson	United States	US	-110.9747108	32.2226066
0134627330776d55	Ostende	Argentina	AR	-56.8838234	-37.1250381
0134bc901f42a482	Ollagüe	Chile	CL	-68.2547802	-21.2256917
0134e9670afa8f32	Merlo	Argentina	AR	-65.0157565	-32.3478326
01350ba93633bad4	Santiago	Chile	CL	-70.6692655	-33.4488897
013522304ee10b39	Comodoro Rivadavia	Argentina	AR	-67.4822429	-45.8656149
013675972e81bcfb	Cantaura	Venezuela	VE	-64.3490085	9.297858
0137799d4f960b21	Distrito Capital	Venezuela	VE	-66.9511459	10.5004352
0138a2ed609c5a53	González Catán	Argentina	AR	-58.6315295	-34.7624548
0138f131367fed32	Las Vertientes	Argentina	AR	-64.5784951	-33.2818437
013945ec195d28a0	Flor Amarilla	Venezuela	VE	-67.93447809999999	10.1360306
013a87000e5c4e15	Conchalí	Chile	CL	-70.68002129999999	-33.3846893
013af206217285bb	Apure	Venezuela	VE	-68.52471489999999	6.926948299999999
013af5fa718c686a	Enciso	Colombia	CO	-72.70000999999999	6.66756
013c03b76ec9917e	San Vicente de Cañete	Peru	PE	-76.247912	-13.1917039
013c4ab452ad50e9	San Felipe	Venezuela	VE	-68.74530639999999	10.3401921
013c851f27032b53	Turbo	Colombia	CO	-76.7284559	8.0951588
013cb38e7fe501ae	Cuenca	Ecuador	EC	-79.00589649999999	-2.9001285
013cfcb2685426b0	Naranjito	United States	US	-66.2448904	18.3007861
013e18a66bf81418	Ica	Peru	PE	-75.7341811	-14.07546
013e2c317513251e	Fonseca	Colombia	CO	-72.85151499999999	10.886123
013e7e3333c96879	Coelemu	Chile	CL	-72.7570024	-36.4983941
01406a9e180358b8	Avellaneda	Argentina	AR	-58.3669739	-34.6610756
0140d85c76fae062	San Nicolás de los Arroyos	Argentina	AR	-60.2110494	-33.3334669
0140fec47be32676	San Luis	Peru	PE	-76.99911399999999	-12.0784625
01419c161b8e9dbd	Ensenada	Argentina	AR	-57.9124307	-34.8607513
0141b5496b837b6b	Andalucía	Colombia	CO	-76.16737499999999	4.168711
01426ebe62f8b6b8	Firmat-General López	Argentina	AR	-61.4862572	-33.4583964
0142981624862aa5	San Borja	Peru	PE	-76.9947088	-12.0954443
0142b14b0310257f	Comas	Peru	PE	-77.04784819999999	-11.9150865
0142b843100f190a	La victoria	Peru	PE	-77.01628989999999	-12.0734497
01430b6f5ceba993	Liberia	Costa Rica	CR	-85.4406747	10.6345964
0143619c5de3775e	Alcorta	Argentina	AR	-61.124381	-33.5389688
01438bbb31459437	San Felipe	Chile	CL	-70.7208115	-32.75
0143b5243dac886b	Bragado	Argentina	AR	-60.48994130000001	-35.1154755
0143df82331518eb	Ancud	Chile	CL	-73.8276965	-41.8675003
0144b1172069289c	Trafalgar	España	ES	-3.7016663	40.43422930000001
0145137e2190e5d7	Rosario del Talá	Argentina	AR	-59.1443273	-32.3032364
0145ef004a7e3133	Albania	Colombia	CO	-72.59190699999999	11.160651
0148157228b7268a	Guernica	Argentina	AR	-58.3838059	-34.9178701
01491ddb6248280e	Bello	Colombia	CO	-75.55958869999999	6.336728799999999
014950ed1900452e	Caraballeda	Venezuela	VE	-66.84988830000002	10.6135398
0149bbb636ea616c	San Joaquín	Chile	CL	-70.6283361	-33.496202
0149cac024f4354a	Baní	Dominican Republic	DO	-70.3367794	18.2802491
0149fa643de6c639	San Rafael	Argentina	AR	-68.3390622	-34.6128922
014a38a754ca1dbc	Morón	Argentina	AR	-58.6167212	-34.6558611
014be4b32ac71d2f	San Juan de Lurigancho	Peru	PE	-76.99398359999999	-11.9689301
014be4bb01603328	San Fermín	España	ES	-3.6916569	40.3717659
014c3ff137d87084	Almirante Brown	Argentina	AR	-58.3945107	-34.8400613
014c4d4027b0e7e2	Calera de Tango	Chile	CL	-71.197222	-32.786667
014c62f13e953863	Alajuela	Costa Rica	CR	-84.21417009999999	10.0159394
014c9da514e05f59	Pasto	Colombia	CO	-77.285787	1.2058837
014ded281508d85f	Dorado	United States	US	-66.2676683	18.4588347
014e0def58cf7997	Ventanilla	Peru	PE	-77.126587	-11.8782732
014e124562aef263	General Obligado	Argentina	AR	-59.5642369	-28.729529
014e643d55866511	Santa Anita	Peru	PE	-76.97036729999999	-12.0433031
014f394f11cda9e4	Iquique	Chile	CL	-70.1356692	-20.2307033
014f4a0c54e59ea8	Breña	Peru	PE	-77.0516834	-12.057053
014f72200f706d3f	Caseros	Argentina	AR	-58.5634631	-34.6094827
014f88e170f7a00f	Entrerrios	Colombia	CO	-75.516908	6.566146
0150459b5095a59f	Concepción	Chile	CL	-73.0443904	-36.8201352
01506a13100d3e85	El Tigre	Venezuela	VE	-64.2329738	8.8819995
0150c511660f89fd	Guayama	United States	US	-66.1137767	17.9841328
015105ad19801b06	Ponta Pora	Paraguay	PY	-55.7347026	-22.5736704
0151a18c54bdbe02	Puerto Cabello	Venezuela	VE	-68.02986539999999	10.4697685
0152999e2d96f6ca	Lo Prado	Chile	CL	-70.7233493	-33.4442688
0152c0f36270f8b1	Guárico	Venezuela	VE	-66.2367172	8.7489309
0153cdd842227e58	Pastaza	Ecuador	EC	-78.00310569999999	-1.4882265
015489327caa56cd	Lurin	Peru	PE	-76.8838234	-12.2608455
0154a3e455cc5916	Vega Alta	United States	US	-66.3277245	18.4169158
0154bba02bf8a9f9	Pudahuel	Chile	CL	-70.7640644	-33.4421135
015551912cc59ede	La Punta	Peru	PE	-77.1643337	-12.0707779
0155aba4519b8d8d	San José	Uruguay	UY	-56.7075141	-34.3486042
015602ae2c244e99	Mejia	Ecuador	EC	-78.6114999	-0.4783839
015634a846a9c46a	Hugo Stroessner	Paraguay	PY	-56.53288999999999	-25.405809
015642947c54e417	Calabozo	Venezuela	VE	-67.4158925	8.9180089
0156549254faed3d	Algarrobo	Chile	CL	-71.67055340000002	-33.3647762
01566b25bbe7a6d3	Mérida	México	MX	-89.5925857	20.9673702
015672e3598a40db	Horqueta	Paraguay	PY	-57.0505991	-23.3525184
01570cb824e2c3e0	Santo Domingo Oeste	Dominican Republic	DO	-70.0086306	18.4888797
0158176431a82700	San Justo	Argentina	AR	-58.5632629	-34.6874084
0158593111a1041f	Retiro	Colombia	CO	-75.50258199999999	6.060955
015a278c7012b876	Playas	Ecuador	EC	-80.3895886	-2.6284683
015aac6813f8c794	Cevicos	Dominican Republic	DO	-69.9779372	19.0066593
015af79215fa16fa	Nogales	Chile	CL	-71.2042115	-32.7333
015b119216e2fced	Muisne	Ecuador	EC	-80.02065499999999	0.6116136999999999
015c005b4efdc7ee	Trujillo	Venezuela	VE	-70.4372404	9.356449699999999
015cbec154ca1c9c	Chacao	Venezuela	VE	-66.84988830000002	10.5189539
015d01f62d943406	Ciudad Arce	El Salvador	SV	-89.45353569999999	13.8536285
015d19216c749864	Carabobo	Venezuela	VE	-68.0477509	10.1176433
015e326879ba207f	Calama	Chile	CL	-68.9293819	-22.4543923
015e5397777769a2	Mérida	Venezuela	VE	-71.1804988	8.5698244
015e80811bcca041	Canas	Costa Rica	CR	-85.09346239999999	10.4274414
015ebf2571d0d8ce	Bucaramanga	Colombia	CO	-73.1227416	7.119349
01601887782a8ef0	Cubará	Colombia	CO	-72.108186	7.00178
0160b4c4663d6ea0	Juan de Acosta	Colombia	CO	-75.03585799999999	10.829092
0160c6061f211c04	Bejuma	Venezuela	VE	-68.2594012	10.1771427
0160e5116fbd85d6	Melipilla	Chile	CL	-71.2166838	-33.6861588
01618e0d5ce1cc58	Marcona	Peru	PE	-75.0844757	-15.3439659
0161be1b3f98d6c3	Bogotá, D.C.	Colombia	CO	-74.072092	4.710988599999999
0161ccbd7250d337	Sibaté	Colombia	CO	-74.259334	4.485011
0161f3502c6da561	San Rafael del Piñal	Venezuela	VE	-71.9608808	7.523414900000001
0162053b1929c53f	Los Rosales	España	ES	-3.6913423	40.3559387
0162954011ffbde8	Luján	Argentina	AR	-59.1208805	-34.5633312
0162ad985b7ca47c	Chiguayante	Chile	CL	-73.0173901	-36.9532201
0163742523086679	Barrio San Jose III	Argentina	AR	-58.34426500000001	-34.7669258
01651b883a556caf	Alejandro Petion	Argentina	AR	-58.67406090000001	-34.978926800000004
016541257387aa36	Aguadilla	United States	US	-67.1540698	18.4274454
0165fd44316e9f7f	Cumana	Venezuela	VE	-64.18331599999999	10.431916
0166613a22e8bbe7	Junín	Argentina	AR	-60.94955400000001	-34.5885499
0166fa3e45bf3362	Wanchaq	Peru	PE	-71.949025700000007	-13.5346909
01670a614d3244d4	Itagui	Colombia	CO	-75.6190324	6.1681832
01672bcb06c049f6	Encarnacion	Paraguay	PY	-55.9135867	-27.2522918
01672f281e5c45ac	Zacatecoluca	El Salvador	SV	-88.8694951	13.5122393
016869722a2554a8	la Nova Esquerra de l'Eixample	España	ES	2.1528291	41.38477109999999
01686dc90dabcc80	Palmilla	Chile	CL	-71.380135	-34.57742229999999
01687f58643e371e	San Javier de Loncomilla	Chile	CL	-71.73250209999999	-35.5930962
0168b9f35a6e101b	Loja	Ecuador	EC	-79.2112769	-4.0078909
0169141b212ae22f	El Cercado	Venezuela	VE	-69.2460335	10.1194515
0169b9217c9dbcd0	Cali	Colombia	CO	-76.5319854	3.4516467
0169e8f30556416d	Ate	Peru	PE	-76.88504329999999	-12.0147737
016a85a70a9e231f	San Pedro	Argentina	AR	-59.66286640000001	-33.6757835
016c0fc825afcc3d	Yolombó	Colombia	CO	-75.01478	6.59995
016c57fe08a237a7	Cajamarca	Colombia	CO	-75.426844	4.441792
016d38d4114b98c2	Chinchiná	Colombia	CO	-75.6636734	5.0017574
016d8a4a6eb3af15	Samborondon	Ecuador	EC	-79.8730712	-2.1037661
016db19d23d6c599	Lomas de Copello	Argentina	AR	NA	NA
016ea1445db12efb	Central	Paraguay	PY	-57.5079912	-25.5628115
016eb87b25e8a354	Puerto La Cruz	Venezuela	VE	-64.6334643	10.2007985
016efd0e63c7b3d8	Chinácota	Colombia	CO	-72.60247	7.600192999999999
016f704d5cfd0599	Chiriguaná	Colombia	CO	-73.5997	9.361464
016fce5a7aca1ac7	Independencia	Peru	PE	-77.05181689999999	-11.9929208
0170d9df339a9451	Riohacha	Colombia	CO	-72.91678379999999	11.5384151
0170dabf497f90fb	San Miguel del Monte	Argentina	AR	-58.8070938	-35.4411249
017115ee2013f809	Lanús Oeste	Argentina	AR	-58.39207949999999	-34.6994795
017246337e451802	Luján de Cuyo	Argentina	AR	-68.8726145	-32.9980559
01724d5d7118bcae	Facatativá	Colombia	CO	-74.35400899999999	4.809984
017320fd6f4dcb81	Natales	Chile	CL	-72.4977407	-51.7308935
0173a652019f4a3c	Subtanjalla	Peru	PE	-75.8882508	-14.0418069
0174fe07103cdb0c	San Bernardo	Argentina	AR	-56.6791979	-36.6863655
0175ef151d44f5a8	La Ligua	Chile	CL	-71.2325958	-32.44990180000001
0176070b02f35a51	Tenjo	Colombia	CO	-74.145663	4.871884
017665d41c54b2c8	Chivilcoy	Argentina	AR	-60.0190731	-34.8969795
017697d30746c82c	Los Teques	Venezuela	VE	-67.0345443	10.349223
0176ea0c39765f09	San Francisco	Venezuela	VE	-71.69106599999999	10.5451205
01777c1d1eb885cc	Santo Domingo	Costa Rica	CR	-84.0909289	9.980723399999999
0177894212b08f73	La Plata	Argentina	AR	-57.95356570000001	-34.9204948
0177bc687a9ac697	Quito	Ecuador	EC	-78.4678382	-0.1806532
0177c06b29c1e0dc	Molina	Chile	CL	-71.2829759	-35.1164987
0177ce655944c3f3	Echarate	Peru	PE	-72.59468310000001	-12.7756182
0177fcb947770473	Arica	Chile	CL	-70.3125988	-18.4782534
01793a8f7dd9b9bb	Carolina	El Salvador	SV	-88.3057061	13.8462374
017a789e4a7b30e2	Olivar	Chile	CL	-70.883	-34.233
017b020b787dae92	Colón	Argentina	AR	-58.1447142	-32.2249328
017b6a4d3e5a375a	Bosconia	Colombia	CO	-73.890531	9.970362
017bd20275830150	Villa Dolores	Argentina	AR	-65.1902739	-31.9450289
017bfb3e1f5037d8	San Ramón	Chile	CL	-70.64249889999999	-33.538901
017c28704b5cd66a	Rawson	Argentina	AR	-65.09948729999999	-43.2998581
017c2f963566f820	La Joya De Los Sachas	Ecuador	EC	-76.8571063	-0.3013626
017c32b5675fad78	Sierra de los Padres	Argentina	AR	-57.7778205	-37.9474256
017c34650c2dd3d7	Zárate	Argentina	AR	-59.0242302	-34.0957811
017c9a5b41c67967	La Banda de Shilcayo	Peru	PE	-76.34636239999999	-6.4927163
017d3a2e5797d178	San Nicolás	Chile	CL	-72.2167	-36.5
017d4fef075a2cf1	Santiago del Estero	Argentina	AR	-64.264167	-27.7833574
017d6fd75108cb10	San Pedro de los Milagros	Colombia	CO	-75.54711999999999	6.463629999999999
017f24412e7d4240	Trujillo	Peru	PE	-79.0329727	-8.106042799999999
017f47ab29a7772a	Formosa	Argentina	AR	-58.1755669	-26.1857768
01804f5033cd50c1	Guarne	Colombia	CO	-75.442627	6.279597
0180c65b379a42dc	Morales	Peru	PE	-77.5195715	-9.5281335
01816dd17086d257	Open Door	Argentina	AR	-59.07522409999999	-34.49112
018247693a6733dc	San Miguel	Chile	CL	-70.651797	-33.4923545
01830c420f08a0ed	Casco Histórico de Vallecas	España	ES	-3.6262606	40.3756965
0183b61239c77a87	San Fernando De Apure	Venezuela	VE	-67.46953069999999	7.8806888
0183fe632a46dab6	Cidra	United States	US	-72.7963392	41.4910205
018413546059a656	Famaillá	Argentina	AR	-65.40216830000001	-27.0560551
018435846685199d	Isabela	United States	US	-67.0242062	18.4703856
018487991bb57bfe	Capitán Bermudez	Argentina	AR	-60.7208217	-32.8153121
01855d2f7a731ddb	Frontera	Argentina	AR	-68.0421765	-38.9516158
018596a87ec01ded	Sabanalarga	Colombia	CO	-75.8031094	6.921059899999999
01869a1e3bb7e6c5	San Miguel	El Salvador	SV	-88.1779182	13.4792922
01886a5060bdbd06	Tafí del Valle	Argentina	AR	-65.70981669999999	-26.8516667
0188e4f05abb6762	Pueblo Nuevo	Venezuela	VE	-69.91632249999999	11.9498242
0188f27841b8920c	La Cisterna	Chile	CL	-70.66135109999999	-33.5264495
01893ac92cf44331	Necochea	Argentina	AR	-58.73960879999999	-38.5544968
018a0c73480772a3	Santa Catarina Masahuat	El Salvador	SV	-89.7638071	13.7896373
018a297506b5c2bb	Miraflores	Peru	PE	-77.0315913	-12.111062
018b41da64097fa2	Paraguari	Paraguay	PY	-57.1520642	-25.6262174
018b4d607d9a425e	San Cristóbal	Dominican Republic	DO	-70.1065849	18.4180414
018bf3291d208f35	Nuevo Chimbote	Peru	PE	-78.445126	-9.105264799999999
018c43a46b787351	Pelluhue	Chile	CL	-72.5914616	-35.9051317
018d88364c2a57e4	Lo Barnechea	Chile	CL	-70.518517	-33.352669
018d91904a1eaf01	San Juan de Miraflores	Peru	PE	-76.97226359999999	-12.1551319
018deff91b0b23b7	Barcelona	Venezuela	VE	-64.67768	10.1445691
018e27044befea03	Nirgua	Venezuela	VE	-68.5634682	10.1558257
018e4aba7010ecbe	Ciudad Bolivar	Venezuela	VE	-63.5535552	8.088279100000001
018eaba26c0e04b6	Los Olivos	Peru	PE	-77.07602539999999	-11.9593005
018f1cde6bad9747	Ciudad Autónoma de Buenos Aires	Argentina	AR	-58.3815591	-34.6036844
018fe41c01f25b41	San Luis	Argentina	AR	-66.3377522	-33.3017267
0190259e71036286	Tarma	Peru	PE	-75.68894929999999	-11.4193347
0190477a36e5f54d	Caricuao	Venezuela	VE	-66.98093	10.4344176
0191c3b40ed74666	Guaymallén	Argentina	AR	-68.80470040000002	-32.9028208
01925d2b110b8e73	Arauca	Colombia	CO	-71.0022311	6.547306
01933449466df5b4	Sol	España	ES	-3.7041687	40.4166635
01939c9a2941c18a	Aragua	Venezuela	VE	-67.2847875	10.0635758
01943aba647e2f9a	Orocovis	United States	US	-66.3911686	18.2269224
01944e836418251b	Socorro	Colombia	CO	-73.2477526	6.466037999999999
0194932371389394	Mamo	Venezuela	VE	-67.061971	10.587622
0195013c14bb0e0e	Tacuarembó	Uruguay	UY	-55.9859887	-31.7206837
0195144d0dd16503	Carúpano	Venezuela	VE	-63.25624819999999	10.6429802
019591314818fea8	El Consejo	Venezuela	VE	-67.2758491	10.2385373
01973562619fa93b	Tomé	Chile	CL	-72.9588593	-36.6131562
01975eef4d91e560	Cojedes	Venezuela	VE	-68.9196819	9.6220448
0198c6f108778b40	Maracay	Venezuela	VE	-67.60661640000001	10.2441931
019a80e87e7c0f46	Juárez	México	MX	-100.1059194	25.6516471
019a83f867e34001	Guardarraya	United States	US	NA	NA
019b80063f88752a	Guaira	Paraguay	PY	-56.2929381	-25.8810932
019bf6732cee91ac	Maunabo	United States	US	-65.8993289	18.0071885
019c9dfe1ed435f4	Málaga	Colombia	CO	-72.729891	6.703857999999999
019d28544dcd29e3	Pucón	Chile	CL	-71.9776285	-39.2722541
019d98375835b088	Leales	Argentina	AR	-65.3097706	-27.1944286
019d9d4224160e0f	Juan Bautista Alberdi	Argentina	AR	-65.62407619999999	-27.5860327
019e6a103559d590	Portuguesa	Venezuela	VE	-69.097023	9.094399899999999
019e93c342ef52aa	Requínoa	Chile	CL	-70.815833	-34.2883749
019f2f4e187ace41	Ñuñoa	Chile	CL	-70.5978415	-33.4566678
019f5b823c2b7bae	Valparaíso	Chile	CL	-71.61268849999999	-33.047238
019f5fa004848a63	Ilo	Peru	PE	-71.3468091	-17.6680839
019fee5548fbc475	Umachiri	Peru	PE	-70.7540166	-14.852605
019ffdfc280e4854	La Perla	Peru	PE	-77.10948669999999	-12.0702564
01a06e711483a347	Zaragoza	El Salvador	SV	-89.2918473	13.5860809
01a09ade70818f7c	Villa Carlos Paz	Argentina	AR	-64.4992141	-31.4207828
01a0dcd6358a6695	Pradera	Colombia	CO	-76.24227499999999	3.418186
01a1a2cf47d90e95	Guanacaste	Costa Rica	CR	-85.44367059999999	10.6267399
01a21b771b203a73	Tamboril	Dominican Republic	DO	-70.6108366	19.4860275
01a2d81b02ef3be4	Yagua	Venezuela	VE	-67.91063179999999	10.2501676
01a349497edfea76	Yerba Buena	Argentina	AR	-65.30135290000001	-26.8119881
01a3db0c6d353fbd	Santa Teresa del Tuy	Venezuela	VE	-66.70411969999999	10.27085
01a4b3c42272abe3	Doñihue	Chile	CL	-70.95792879999999	-34.228986
01a4bfca4c8827cc	Castro	Chile	CL	-73.7624137	-42.4801402
01a4dbad63bebe54	Villa el Salvador	Peru	PE	-76.9531145	-12.2056614
01a5231065606f45	Santa Ana	El Salvador	SV	-89.56391190000001	13.9778279
01a6a58f3193a4fa	Lobería	Argentina	AR	-58.7816955	-38.1634422
01a6dee5328f585b	Limache	Chile	CL	-71.2595888	-33.0095283
01a73d6169f504ac	San Cristóbal	Venezuela	VE	-72.22614659999999	7.771357200000001
01a74227630d48a8	Bolívar	Venezuela	VE	-63.580611	6.3585216
01a74cd12b8ab384	Santa Maria del Mar	Peru	PE	-76.7743383	-12.4058611
01a7e5c417e78885	Guanta	Venezuela	VE	-64.591805	10.2343685
01a9a19818b54313	Villanueva	Colombia	CO	-72.98193599999999	10.603721
01a9b63a22f85f8c	Alto Parana	Paraguay	PY	-54.9611836	-25.6075546
01a9dbb9232f0fac	Montevideo	Uruguay	UY	-56.16453139999999	-34.9011127
01aade860ac00336	Papudo	Chile	CL	-71.4485013	-32.5072087
01aae5bd62bae61d	Ciudad Guayana	Venezuela	VE	-62.6496813	8.3663119
01aaf0f43f40cd45	Caldas	Colombia	CO	-75.2479061	5.29826
01ab0b143a30a686	Peñaflor	Chile	CL	-70.8781837	-33.6060255
01ac1f3157c4ffc7	Cochrane	Chile	CL	-72.57298229999999	-47.2535728
01ac74da63903b1e	Villamaría	Colombia	CO	-75.514771	5.042568999999999
01ad28a428fd291d	Camuy	United States	US	-66.8417242	18.4835801
01ad880d534eb8cb	Salinas	Ecuador	EC	-80.958462	-2.2233633
01ad985d76bfb163	Chimbote	Peru	PE	-78.589011	-9.063336399999999
01af35f5243efca4	Jesús Maria	Peru	PE	-77.0506498	-12.0825241
01af6bc212beb982	Rio Ceballos	Argentina	AR	-64.31233259999999	-31.1737267
01afb3384ee625c5	Soldini	Argentina	AR	-60.7547183	-33.020688
01b1ce94576af260	Los Cardales	Argentina	AR	-58.9866859	-34.3283474
01b1fad878f59dab	Huarmey	Peru	PE	-78.1506824	-10.0664169
01b2495a649b73b7	Punchana	Peru	PE	-73.4180211	-3.5493075
01b397c72768b832	Mario Briceño Iragorry	Venezuela	VE	-67.6304588	10.3300993
01b40b49265b126c	Santa Fé	Argentina	AR	-60.697294	-31.6106578
01b4531613f46f1e	Bab El Oued                                                                                         	Algérie	DZ	3.0513601	36.7927594
01b563fc6a840344	Peñol	Colombia	CO	-75.2435307	6.2199662
01b60da7176eaa4c	Azogues	Ecuador	EC	-78.8488227	-2.7409471
01b6248340098bad	San Salvador	El Salvador	SV	-89.2181911	13.6929403
01b6506179889d7d	Villeta	Colombia	CO	-74.470362	5.011706
01b7d0dd56f20858	Pedernales	Ecuador	EC	-80.0513928	0.07311809999999999
01b83dbe427f9500	Tame	Colombia	CO	-71.745515	6.457094
01b845ce780a9100	Cartago	Costa Rica	CR	-83.91619349999999	9.8638091
01b85cb456b7848f	Huacho	Peru	PE	-77.61056789999999	-11.1227218
01b867b3517207b6	Ipiales	Colombia	CO	-77.639504	0.825542
01b89a544d5ffdf9	Guayacanes	Dominican Republic	DO	-69.4575979	18.4249461
01b8d0e40f25bf14	Azul	Argentina	AR	-59.8540382	-36.7749672
01b8de1a62dbb551	Rawson	Argentina	AR	-65.09948729999999	-43.2998581
01b90c376479a920	General Pedernera	Argentina	AR	-65.6658568	-33.9270785
01b931440379ed4d	Casablanca	Chile	CL	-71.4070899	-33.3182828
01b9476e2b1e31b0	Las Piedras	United States	US	-107.3408813	37.2236144
01bb424614787b00	Soacha	Colombia	CO	-74.21174649999999	4.5827227
01bb43843a44d07c	Duitama	Colombia	CO	-73.0329273	5.8268951
01bbf1366b6a9f02	Puerto Presidente Stroessner	Paraguay	PY	-54.6385999	-25.5069299
01bc41ac40f6f2ff	San Antonio De Los Altos	Venezuela	VE	-66.9608398	10.3741515
01bc7cf80eb322bc	Cotuí	Dominican Republic	DO	-70.153032	19.058339
01bcac764b72de63	Cúa	Venezuela	VE	-66.8915809	10.1709167
01bd23a802fb1e24	Río Cuarto	Argentina	AR	-64.3493441	-33.1231585
01bd400c1ee9db95	Manizales	Colombia	CO	-75.5138166	5.070275
01bdcd88529c1365	Urbanizacion Manaure	Venezuela	VE	-69.670096	11.3935247
01be351754bcbe13	Maracaibo	Venezuela	VE	-71.6125366	10.642707
01be71035bd8fa04	Aeropuerto	España	ES	-3.5675982	40.4983322
01be81a62ba8647a	Gualeguaychú	Argentina	AR	-58.5111667	-33.0077778
01bef6953720d96d	Ciénaga de Oro	Colombia	CO	-75.621332	8.879215
01bfa0f02547f1cc	Santa Cruz	Chile	CL	-71.3592116	-34.6324213
01c0a65e1a84b613	San Vicente	Argentina	AR	-58.423763	-35.0241134
01c148b7421c9ca1	Granadero Baigorria	Argentina	AR	-60.7035177	-32.8580243
01c205c854bbb1a8	Armenia	Colombia	CO	-75.6756888	4.535000399999999
01c2a15275495456	Colonia	Uruguay	UY	-57.6106775	-34.2642474
01c2aa8058481252	Juncos	United States	US	-65.92099700000001	18.2274558
01c481cb070698d7	Fajardo	United States	US	-65.6523838	18.3257869
01c4b69132435aff	Cartagena	Chile	CL	-71.6045745	-33.5482466
01c6469f34d2a354	La Pintada	Colombia	CO	-75.606403	5.746942
01c71d2109e6f7b7	Cauquenes	Chile	CL	-72.32223309999999	-35.967628499999996
01c74ce346b2b48c	Verónica	Argentina	AR	-57.33841109999999	-35.3873557
01c78d6030d80ecf	Puntarenas	Costa Rica	CR	-84.82942109999999	9.9778439
01c8145a2c52ee2e	Bajos de Haina	Dominican Republic	DO	-70.032934	18.4236128
01c8e14c184d4432	Los Ángeles	Chile	CL	-72.3612251	-37.4629159
01c900db4f0e42c9	Porlamar	Venezuela	VE	-63.8699655	10.9570221
01c906512ec603da	Orense	Argentina	AR	-59.7807589	-38.6882636
01c92bd8783a21bf	Baranoa	Colombia	CO	-74.915036	10.796589
01c93e351e3122fb	Miranda	Venezuela	VE	-66.4271499	10.2509303
01c941a5491a163b	Paine	Chile	CL	-70.7392929	-33.8086235
01cb69a764a68d10	Mérida	Venezuela	VE	-71.1804988	8.5698244
01cc3b78422f9966	Mejillones	Chile	CL	-70.4455041	-23.0985013
01cc3e151a7a06c4	Zarzal	Colombia	CO	-76.07285399999999	4.394865000000001
01ccd8867419dc0a	Los Harales	Venezuela	VE	-67.9627132	10.2139826
01cd001a7321b5f3	Cabo Rojo	United States	US	-67.156498	18.07996
01ce4a433db2a16f	San Francisco	Colombia	CO	-74.291386	4.974252
01cf130f73adfa31	Choya	Argentina	AR	-64.811084	-28.6966334
01cf49711801b714	Esperanza	Dominican Republic	DO	-70.9844	19.5852608
01cf9f523067a388	Chonchi	Chile	CL	-73.7738499	-42.6232593
01d04dc21ce11b2d	Marinilla	Colombia	CO	-75.341462	6.176966999999999
01d13f2529da75c4	Paraná	Argentina	AR	-60.51154709999999	-31.7413197
01d1e346068a2579	Marcos Paz	Argentina	AR	-58.8377795	-34.7823358
01d23b9d594466bc	Maní	Colombia	CO	-72.28070199999999	4.817986
01d2693842256109	El Cercado	Dominican Republic	DO	-71.5204639	18.7294859
01d2a02145990540	La Concordia	Ecuador	EC	-79.391605	0.0091672
01d32f783858ca52	Copacabana	Colombia	CO	-75.505078	6.357621
01d37b4b3bf45d16	Yanahuara	Peru	PE	-71.5575586	-16.3977391
01d461fd3da860bd	Providencia	Chile	CL	-70.6093325	-33.4314474
01d487de3c4e0807	Maldonado	Uruguay	UY	-54.9634343	-34.9018717
01d53aae1bd4162d	Santiago Texacuangos	El Salvador	SV	-89.119057	13.640896
01d5a4263d85ebc1	Pehuajó	Argentina	AR	-61.8987832	-35.8107166
01d5c2441bc42a99	Quebrada	United States	US	-71.1427848	42.4059652
01d677e97eae46b3	Zulia	Venezuela	VE	-72.1416132	10.2910237
01d6a42e6657caa4	Aguilares	El Salvador	SV	-89.184883	13.9652534
01d6e8863bde02c0	Trujillo	Venezuela	VE	-70.4372404	9.356449699999999
01d7467a733d8339	Roque Pérez	Argentina	AR	-59.3348143	-35.4006236
01d7cf12131e9a64	Yopal	Colombia	CO	-72.40052299999999	5.348903
01d81ef9624ec31c	Tierra Amarilla	Chile	CL	-70.2652196	-27.4671706
01d9bafa50086160	Rada Tilly	Argentina	AR	-67.55290459999999	-45.9245822
01da0f365a77a199	Loja	Ecuador	EC	-79.2112769	-4.0078909
01dad35d05ac3334	Puntarenas	Costa Rica	CR	-84.82942109999999	9.9778439
01dad62c4117964a	Puerto Colombia	Colombia	CO	-74.950761	11.001004
01dae16f484ea77a	La Estrella	Colombia	CO	-75.636623	6.151144899999999
01daf54930ae8925	Isla de Maipo	Chile	CL	-70.89999999999999	-33.7464562
01db22cf2a84ce56	Calca	Peru	PE	-71.9549533	-13.324084
01dbe379659a52ab	Olavarría	Argentina	AR	-60.32334989999999	-36.8937167
01dc9f6324ff4a07	Las Higueras	Argentina	AR	-64.2855148	-33.0909119
01dd4e50059597d2	Ica	Peru	PE	-75.7341811	-14.07546
01ddedcb5fddc691	Paysandú	Uruguay	UY	-58.08113400000001	-32.2706789
01df21764465b9f1	Coronel Oviedo	Paraguay	PY	-56.4597898	-25.3584118
01df29355ffa0d6b	Santa Rosa	Argentina	AR	-64.2912369	-36.620922
01df3a604574e962	Cusco	Peru	PE	-71.96746259999999	-13.53195
01e08ae773318bbc	Puente Piedra	Peru	PE	-77.07442979999999	-11.8648256
01e0aaf250623895	San Miguel	Peru	PE	-77.0934137	-12.0774344
01e1143e7d40e6a0	San Vicente de Tagua Tagua	Chile	CL	-71.0913748	-34.4349435
01e117f801612983	Francisco Linares Alcántara	Venezuela	VE	-67.5172111	10.2009567
01e184351f8c7470	Río Grande	Argentina	AR	-67.7002243	-53.7860374
01e207be34aacdbe	Juana Koslay	Argentina	AR	-66.61666	-33.31666
01e26a7920d324d8	Puerto López	Colombia	CO	-72.955918	4.091354
01e2a2334289948c	Huechuraba	Chile	CL	-70.6367425	-33.3742128
01e31f8958195b51	Bonao	Dominican Republic	DO	-70.40899240000002	18.9322174
01e3461f1cbb42cd	Santa Ana	Colombia	CO	-74.570544	9.322961
01e37ac50220ba75	Sacacoyo	El Salvador	SV	-89.47067299999999	13.7326971
01e38ed31128ac04	Guapi	Colombia	CO	-77.885469	2.571287
01e3a8037586cf28	Ayacucho	Peru	PE	-74.22356409999999	-13.1638737
01e3d7151d56770e	San Sebastián de Mariquita	Colombia	CO	-74.88683499999999	5.199504999999999
01e44ba55402e9c9	La Villa Del Rosario	Venezuela	VE	-72.32474859999999	10.3144392
01e525e8315b79ad	Balcarce	Argentina	AR	-58.25545839999999	-37.8464067
01e57b506e1eb125	Tamaca	Venezuela	VE	-69.305633	10.1869884
01e6f0de7086875b	Vitacura	Chile	CL	-70.57241239999999	-33.3905211
01e734c159d622e8	Presidente Hayes	Paraguay	PY	-58.73736339999999	-23.3512605
01e7e313087f6b9f	San Fernando	Chile	CL	-70.99078010000001	-34.5858603
01e83c661673645d	Pipinas	Argentina	AR	-57.3285672	-35.5301334
01e83dc164ef25b5	Heredia	Costa Rica	CR	-84.1197643	9.9981413
01e8c217f5ffb4ea	Vega Baja	United States	US	-66.3973145	18.4469223
01e8d00831503a96	Los Álamos	Chile	CL	-73.46226639999999	-37.6261237
01e90aa86865637f	San Francisco de Macorís	Dominican Republic	DO	-70.2614719	19.289869499999998
01e941fa1f15c6ac	Guachetá	Colombia	CO	-73.686939	5.383674999999999
01ea8f4d15823d48	Mercedes	Argentina	AR	-59.43059960000001	-34.6510201
01eb16ca34ac11f9	Linares	Chile	CL	-71.59961369999999	-35.846407
01eb19975103d1a8	Machalí	Chile	CL	-70.6565151	-34.179452
01eba1343779b144	Rimac	Peru	PE	-77.0332342	-12.025239
01ebab3813908a18	Heliconia	Colombia	CO	-75.732944	6.208781
01ec4b8d34b5345e	Salitre	Ecuador	EC	-79.8156667	-1.8341992
01ec85686a9d4f0b	Carmen de la Legua Reynoso	Peru	PE	-77.0917003	-12.0427484
01ecc2d77dd918e5	Malambo	Colombia	CO	-74.7746834	10.8575824
01eddcc654ec101c	Hualpén	Chile	CL	-73.1099531	-36.7866757
01ee3b752f31d5cd	Manta	Ecuador	EC	-80.7089101	-0.9676533
01ee54ce4d13313d	Constitución	Argentina	AR	-61.0471355	-33.6022037
01ee68fb632783de	Puerto Montt	Chile	CL	-72.94113639999999	-41.468917
01ef53325401a80c	Posadas	Argentina	AR	-55.90087459999999	-27.3621374
01efc82149bb40c4	Durazno	Uruguay	UY	-56.5275506	-33.3822982
01effa374e0e59ae	Alto los Cardales	Argentina	AR	-58.971895	-34.3123304
01f05c045967ad00	Caaguazu	Paraguay	PY	-56.013851	-25.4645818
01f090006f05e39c	Santa Ana de Coro	Venezuela	VE	-69.6810338	11.394604
01f0c71900c3ee18	Lobos	Argentina	AR	-59.0975278	-35.1853611
01f12d127b3175d6	La Reina	Chile	CL	-70.5340591	-33.4411269
01f166ff1b36d91d	Moniquirá	Colombia	CO	-73.57359	5.875986999999999
01f1a58d6ccbe948	Purranque	Chile	CL	-73.1661093	-40.9084312
01f1bbb61bd619da	Florida	Uruguay	UY	-56.2202946	-34.0948167
01f277c92bc73b88	Mineral del Monte	México	MX	-98.673811	20.1436705
01f2931e2c7f48a8	Asuncion	Paraguay	PY	-57.57592599999999	-25.2637399
01f3348c5d6b0732	Puerto Gaitán	Colombia	CO	-72.083573	4.312977
01f363992f5937d7	Padre Hurtado	Chile	CL	-70.8156717	-33.5695362
01f3d58918788ca7	Llívia	España	ES	1.9802013	42.4633899
01f4547f3368775b	Gálvez	Argentina	AR	-61.2244215	-32.029275
01f58fea28dbf670	San Juan del Cesar	Colombia	CO	-73.0021534	10.7698637
01f6941f3983709c	Zapatoca	Colombia	CO	-73.272537	6.813882
01f6e3cb41cc954c	San Pedro de Atacama	Chile	CL	-68.19971559999999	-22.9087073
01f6ed434973b122	La Fría	Venezuela	VE	-72.2511833	8.2143135
01f74c47681e93fd	Navarro	Argentina	AR	-59.2783596	-35.0058318
01f789333086dd33	Andes	Colombia	CO	-74.297333	4.570868
01f7d5d9145f3315	Viedma	Argentina	AR	-62.9962044	-40.8119087
01f848e9689de257	Rio Negro	Uruguay	UY	-57.78261430000001	-33.0565975
01f91d9e7fcadc28	Tarapoto	Peru	PE	-76.3726891	-6.4824784
01fad8e5529987a6	Chocope	Peru	PE	-79.2197376	-7.7911198
01fb944c0dff3d86	Peñalolén	Chile	CL	-70.5627854	-33.4719116
01fba2a14bc1aaea	José María Ezeiza	Argentina	AR	-58.5168221	-34.8637604
01fbe58420844d9e	Rejas	España	ES	-3.5771601	40.44447460000001
01fca55e367f8f5b	Alajuela	Costa Rica	CR	-84.21417009999999	10.0159394
01fcc4a23f17e1ed	anto Domingo de Guzmán	Dominican Republic	DO	-69.93121169999999	18.4860575
01fcea8f64ab46df	Los Lagos	Chile	CL	-72.1416132	-41.9197779
01fd50ae72f37614	Miraflores	Peru	PE	-77.0315913	-12.111062
01fd81f026f66713	Unquillo	Argentina	AR	-64.3167114	-31.2341309
01fdab006ebb32bc	Tiltil	Chile	CL	-70.92798429999999	-33.0838906
01fdde8b0f5bb3b7	Angol	Chile	CL	-72.70380469999999	-37.8060734
01fde51e65075aeb	La Calera	Colombia	CO	-73.968631	4.720521
01fde78d4879f578	San Luis de Cubarral	Colombia	CO	-73.833333	3.766667
01fe21bb4c036853	Colón	Venezuela	VE	-72.25414409999999	8.0388983
01ffb987246eb307	Tafí Viejo	Argentina	AR	-65.26702879999999	-26.7324791
022273243a29b2f7	Perchas 1	United States	US	-66.9258302	18.2918333
0267ab9949860763	La Seu d'Urgell	España	ES	1.4555525	42.3575784
026cb073c8d122df	Postal	México	MX	-99.14077250000001	19.3910535
02798a66b5842b79	Alhaurín el Grande	España	ES	-4.6876707	36.6428298
027a30461669410b	La Solana	España	ES	-3.2392014	38.94160129999999
0281cd84887b72f8	Villanueva de la Cañada	España	ES	-3.9975566	40.4481075
028b81d44a86e121	Soledade	Brasil	BR	-52.5120619	-28.8304006
02d962b845bcf29c	Cerro Largo	Brasil	BR	-54.73016999999999	-28.1470786
02dbfccbbb96dff0	Fraga	España	ES	0.3404468	41.5234875
02e20e9665120632	San Miguel de Allende	México	MX	-100.745235	20.9144491
0309dc636b3cc850	La Puerta de Segura	España	ES	-2.7369236	38.3492721
032f23872f4c8401	San Agustín Tlaxiaca	México	MX	-98.88623559999999	20.10989
03814ca8690c4780	La Peza	España	ES	-3.2847716	37.2771901
0385e3cb7a5001dd	Huimanguillo	México	MX	-93.3897441	17.8307439
039175f552cb885a	Rascafría	España	ES	-3.8858955	40.8732261
03a07cf11546b9df	Badajoz	España	ES	-6.9706535	38.8794495
03b6fb93e32597ea	Bareyo	España	ES	-3.5998431	43.4686698
03e87eb12a7aa97a	Alcaraz	España	ES	-2.4907128	38.6665292
03e952e8ddc776b8	Oñati	España	ES	-2.4171658	43.0341127
03e96af97b5c0555	Almoloya de Juárez	México	MX	-99.7605116	19.3690064
0419973150b27f44	Moraleda de Zafayona	España	ES	-3.9655245	37.1675265
043383f8b2b79918	Venezuela	Venezuela	VE	-66.58973	6.42375
0466427e22b875e6	Santa Cruz Xoxocotlán	México	MX	-96.74942159999999	17.0193584
0488e361d89b4397	Ferrol	España	ES	-8.2193451	43.48964600000001
0497bb4c52ad8237	Valdoviño	España	ES	-8.142617999999999	43.6077823
04aad88ddb76da0b	Breña Alta	España	ES	-17.8050772	28.6537497
04b087d75b2d2557	Gorliz	España	ES	-2.934305	43.413174
04bd524a682efd1f	Uruguaiana	Brasil	BR	-57.08584279999999	-29.7619121
04bf035e2266f276	Esporles	España	ES	2.579555	39.6657184
04bfc140920a080f	Andalucía	España	ES	-4.7277528	37.5442706
04cc65bb544b6409	Águilas	España	ES	-1.5826055	37.4119365
04d347e7bd64191f	Risaralda	Colombia	CO	-75.9927652	5.315847499999999
04deb171eb3c418d	Vera	España	ES	-1.8611011	37.2291388
050de4ca6a5edfef	Marina Vallarta	México	MX	-105.2531258	20.6639696
056f095744ceb021	San Luis	Argentina	AR	-66.3377522	-33.3017267
05c5864a89d6b7f7	Bergara	España	ES	-2.4232063	43.1259269
05eb7654a30301ac	Tabasco	México	MX	-92.6189273	17.8409173
05faa5853c0df42c	Lezo	España	ES	-1.8998001	43.3223603
0602a87839c162d8	Ixmiquilpan	México	MX	-99.21711739999999	20.4831412
0608d10c2d3b6c72	Montcada i Reixac	España	ES	2.1941598	41.4904225
061fd59c5556cd7f	Arenales de San Gregorio	España	ES	-3.0269546	39.3092907
0621ee6f2d2570d9	Ayna	España	ES	-2.0717287	38.5537339
0623b63b22f58452	Villas de la Hacienda	México	MX	-99.23006409999999	19.6008781
0639360bd49a15e3	Colombia	Colombia	CO	-74.297333	4.570868
069b9a94c64b3f52	Extremadura	España	ES	-6.0679194	39.4937392
06ed84bc2487dc7e	Forcarei	España	ES	-8.351971299999999	42.5879109
071a52d3a927a1b8	Valencia	España	ES	-0.3762881	39.4699075
073c4f7fb198d83d	Albuixech	España	ES	-0.324844	39.5448254
0751b796a45dad6c	Hernani	España	ES	-1.9768497	43.26579280000001
0772d4d8f19f83ed	Barrio San Marcos	México	MX	-102.304874	21.8798566
0779313de392e39d	Universidad	United States	US	-95.946	36.1519879
07c2007dff68cb1b	Montalva	United States	US	NA	NA
07d254cfe31fbecb	Pénjamo	México	MX	-101.724058	20.4313532
07d9c94e78488002	La Concha, A Renaissance Resort	United States	US	-66.0741784	18.4571239
07d9c9ba69081001	Melia Hotel Ponce	United States	US	-66.6131276	18.0117953
07d9ce9bc8485000	Varadero	United States	US	-81.1885293	23.179858
07d9cfe06ec82003	Pizzeria Alo & John Grill & More	United States	US	-67.139895	18.1425539
07d9d6783e887001	Salitre Mesón Costero	United States	US	-66.67885679999999	18.4846838
07d9e37d7ac84001	Museo del Mar	United States	US	-66.1128195	18.4663281
07d9e3b15c085000	Palmas del Mar	United States	US	-65.79201669999999	18.0901698
07d9e4c1b3c86000	El Conquistador Golf Resort, Casino & Spa	United States	US	-110.9989178	32.4033297
07d9f73770c88002	Plaza Carolina	United States	US	-65.9748884	18.3923504
07e87efca4b1bef6	Villoruela	España	ES	-5.395264	41.00783939999999
07f1b7743a403a4a	Rociana del Condado	España	ES	-6.597026199999999	37.3084859
07f70a23853105b1	Lugo	España	ES	-7.5567582	43.0097384
080888f21d551461	Hacienda del Rosario	México	MX	-99.2106745	19.498735
080a97d55812dbc2	Ursulo Galván	México	MX	-96.36116679999999	19.4054894
080c6a129f19e3bf	Navalcarnero	España	ES	-4.016639	40.2855681
08125b8f76702f9f	Sopelana	España	ES	-2.9816125	43.3807336
081d50c4be4ef377	Celaya	México	MX	-100.8112885	20.5279612
083183eed5369ce5	Palamós	España	ES	3.1298161	41.8505066
083623af13759312	Milpa Alta	México	MX	-99.0267076	19.1942041
0877c3855bb90079	Fresnedillas de la Oliva	España	ES	-4.1722255	40.48640169999999
088a7e5c4183a919	Benaguasil	España	ES	-0.5896357	39.5909456
088b2b6320f918a9	Collado Villalba	España	ES	-4.0055605	40.6308775
088bd1671a2e601a	Naucalpan de Juárez	México	MX	-99.245302	19.4630841
08c1179e45e9e3a6	Brihuega	España	ES	-2.8695567	40.7619928
08cf997df23e54c7	Jávea	España	ES	0.1660813	38.7890109
08e9f54f78141e1f	San Luis de la Paz	México	MX	-100.5239867	21.293404
08eb5d76dc74e0e9	Pamplona	España	ES	-1.6457745	42.812526
093a8393cc0cd04b	Tolosa	España	ES	-2.0750946	43.1347544
094e0d66191a35b1	Muskiz	España	ES	-3.1138928	43.3226028
098dc6f86021ff86	Masquefa	España	ES	1.8141603	41.501395
0998ad7ff0bdaa8c	Tlacotalpan	México	MX	-95.655968	18.61092
09af7e209dc28f5f	Frontignan	France	FR	3.755999	43.444815
0a133122f2a95360	Catral	España	ES	-0.8003794999999999	38.159791
0a2104acd7098d10	Guasave	México	MX	-108.4673051	25.5666987
0a228ec2c44f00e3	Camargo	España	ES	-3.8846224	43.4047027
0a29a00507d687e4	Gibraleón	España	ES	-6.9695468	37.3748375
0a465847b68ee60b	Gerena	España	ES	-3.3930413	40.48049169999999
0a738ff13a08a7dd	Santa Fe	Argentina	AR	-60.697294	-31.6106578
0a84e94c4b555137	Ignacio de la Llave	México	MX	-95.98478589999999	18.7249031
0aa2be728a967c5b	Tabernas	España	ES	-2.3900546	37.0516792
0ab1cfe1d3945a22	Las Rozas de Madrid	España	ES	-3.8757916	40.4935329
0ab9fd6675769ba4	La Pampa	Argentina	AR	-64.2839209	-36.6147573
0ac8a42f23e8f736	Puebla	México	MX	-98.2062727	19.0414398
0afa996ca138b63c	Sant Joan d'Alacant	España	ES	-0.4360296	38.4020456
0b0c5e2fefd2acae	La Roca del Vallès	España	ES	2.32586	41.5814805
0b299ab811a6821e	Madrigueras	España	ES	-1.8001488	39.23668079999999
0b2ff74109316a6c	El Vendrell	España	ES	1.534307	41.2196699
0b44d497e6f73221	Tarancón	España	ES	-3.0074463	40.0105152
0b5884ed94de12b0	Sant Joan de Labritja	España	ES	1.513238	39.078739
0b58d81e8577700b	Granada	España	ES	-3.5985571	37.1773363
0b67e2924b5aa1ef	Cartaya	España	ES	-7.150746199999999	37.2829635
0b79f7e718cb54b9	Córdoba	Argentina	AR	-64.1887761	-31.42008329999999
0b9876f86cd1a381	Parla	España	ES	-3.7739869	40.2373062
0b9bdff87bf796c7	San Julián de Loria	Andorra	AD	1.4918235	42.4529631
0ba256905574c264	Mejorada del Campo	España	ES	-3.4877129	40.396654
0bb917c0aa50220a	Alfafar	España	ES	-0.3583606	39.4056288
0bcb6673b8fbc730	Aranda de Duero	España	ES	-3.6902166	41.6692282
0bfd0d32583a313f	Huétor Vega	España	ES	-3.5684419	37.1470974
0c29bb50fc34f494	Minglanilla	España	ES	-1.5789994	39.5350097
0c3315448244b340	Villafranca de los Barros	España	ES	-6.341219199999999	38.562691
0c57c49e4d495e37	Pineda de Mar	España	ES	2.6735412	41.6350339
0c5c0b24c4c19b2c	Guaynabo	United States	US	-66.11106819999999	18.3615548
0c5e32d47132887a	Maracena	España	ES	-3.6329196	37.2078659
0c8f33b080ef0413	Empalme	México	MX	-110.8135688	27.9664523
0d108e89013f0cd9	Fuengirola	España	ES	-4.624943900000001	36.544148
0d2090ccc61657d8	O Grove	España	ES	-8.8651418	42.4959962
0d2ec398c0ca3cbb	Tinum	México	MX	-88.3926948	20.7680246
0d7af4e2c474ba09	Jadraque	España	ES	-2.926335	40.9254668
0d7f25bfdcfd5ab4	Crevillente	España	ES	-0.8113636	38.2446844
0db6cb12bf11e10d	Valdés	España	ES	-6.4503434	43.49419779999999
0df6ac4d361d4e0e	Vigo	España	ES	-8.7207268	42.24059889999999
0df96a5eace851e2	Santa Coloma de Gramenet	España	ES	2.2089109	41.4551421
0e2dac091d980ab9	Posadas	España	ES	-5.106908799999999	37.80453809999999
0e3dc2da4e5dfc41	Altamira	México	MX	-97.92115550000001	22.4077462
0e457b6bd3b51f24	Carballedo	España	ES	-7.829146600000001	42.5209619
0e7f470d84a8eee7	Arenys de Munt	España	ES	2.5408414	41.6093683
0e81267c0628398d	Chiconcuac	México	MX	-98.8995504	19.5610249
0e9d4185222262bb	Garrovillas de Alconétar	España	ES	-6.551156	39.7055099
0ea05eaac6e953d9	Godella	España	ES	-0.4160527	39.5232062
0ecc927a9d70af7b	Rubí	España	ES	2.0349243	41.4971174
0ed85d45d3c65f13	Cangas	España	ES	-8.7809282	42.2645845
0ef38bc7d4fbaff1	Hato	United States	US	-66.0509549	18.4225782
0ef5d7bb520a036f	Santiago del Estero	Argentina	AR	-64.264167	-27.7833574
0efb10820b990e6b	Fuentesaúco	España	ES	-5.4974453	41.2313964
0f04d85114734b4a	Zaragoza	México	MX	-97.5545143	19.7693245
0f0c7c1aebdb17aa	Xilitla	México	MX	-98.9921748	21.3841719
0f36f04bd7c2ff62	Mondragón	España	ES	-2.4902081	43.0648865
0f5ba50d9d3d8fe4	Montefrío	España	ES	-4.005704199999999	37.323145
0f67bea7018b14c2	Valls	España	ES	1.2494589	41.2854449
0f6ec486e6d724c3	Dolores	España	ES	-0.7698073	38.138686
0f7db5e56bd016ec	Arjonilla	España	ES	-4.106609199999999	37.9744861
0f89b841bb43e869	Pechina	España	ES	-2.4403012	36.9163957
0f9229cc43348010	Mieres	España	ES	-5.778528199999999	43.2497264
0f92e88a2cabcb91	Tultepec	México	MX	-99.1260866	19.6860054
0f9dc41f30fb228f	Villanueva del Río y Minas	España	ES	-5.7122139	37.6554687
0fa2859693158bf7	Nicolás Romero	México	MX	-99.30011809999999	19.6162033
0fa2a62fe3a94816	Felanitx	España	ES	3.148297	39.4696851
0fb3c76f0e3df6d1	Hermosillo	México	MX	-110.9559192	29.0729673
0fe076ed7159129b	La Carlota	España	ES	-4.9337946	37.6726446
10168993e75e2eea	Montizón	España	ES	-3.1037173	38.3424442
1027fcd83c280af3	Lagos de Moreno	México	MX	-101.9291015	21.3634964
105e873c4c68939c	Carrizo	España	ES	-5.8292753	42.5839551
1075a12d96a120e9	Vélez-Rubio	España	ES	-2.078777	37.6496854
10a6266178283475	Valdeolmos-Alalpardo	España	ES	-3.4531644	40.6385042
10c3b3784d6f44ba	Golosalvo	España	ES	-1.635698	39.2394219
10d207cf37602e39	Pinoso	España	ES	-1.0411107	38.4035164
1115004c3fafaf8a	Santiago de Compostela	España	ES	-8.5448445	42.8782132
111c940524344011	Barrio Caltongo	México	MX	-99.0848961	19.2585138
1134bf1fffe1761d	Tordera	España	ES	2.7178464	41.6972043
116af7990428ddad	Huatusco	México	MX	-96.965205	19.1438513
1183f2310a23765b	Meliana	España	ES	-0.3348372	39.5247603
11a616cb36505fc1	Roquettes	France	FR	1.366246	43.498605
11e69c3a194c7e0a	Tezontepec de Aldama	México	MX	-99.27197749999999	20.1846619
1285718cd3a647e4	Cuevas del Almanzora	España	ES	-1.876084	37.2922445
129651d37c2f8e95	Mojácar	España	ES	-1.8611011	37.1220313
12b7a0bf3aea9b46	Zaratán	España	ES	-4.783399	41.6576216
1300c99b5bc072b0	Yauco	United States	US	-66.85597539999999	18.035445
13180a99f5632540	Piedras Blancas	United States	US	-67.1864696	18.3624265
131f0ec165b70604	Boborás	España	ES	-8.1427319	42.4324151
132fdb5153c47f41	Dénia	España	ES	0.1050557	38.8387992
13608b120d65a1ff	Quintana Roo	México	MX	-88.4791376	19.1817393
13d479b108707983	Guatemala	Guatemala	GT	-90.23075899999999	15.783471
141ff0ccf99bbce8	Noria de Ángeles	México	MX	-101.9099195	22.4413563
1422a73717cdc7fc	Tortosa	España	ES	0.5214423	40.8125777
143647b90c769781	Cornellà de Llobregat	España	ES	2.0707159	41.3573827
146f02518f1c1835	Aznalcóllar	España	ES	-6.2681327	37.5191373
14744db9b2337683	Santa Marta de Tormes	España	ES	-5.6262751	40.9497273
1483c2f74bdec955	Ubrique	España	ES	-5.44539	36.6770842
14b60f1d55849b49	Torrelobatón	España	ES	-5.0250649	41.6490527
14e329d7cd04c8b5	Alcolea del Río	España	ES	-5.6681456	37.6158112
14e6fc4b20e7bcae	Villaseco de los Reyes	España	ES	-6.185184100000001	41.16208
1505314b343f58b7	Madroñal	España	ES	-6.062955500000001	40.4641909
153e56935c922a37	Aeropuerto Internacional	México	MX	-100.1079853	25.7778185
1543ae9c18a16054	Teror	España	ES	-15.5459718	28.0616461
154b3ecf3a41eb63	Navas del Rey	España	ES	-4.249999	40.3877545
1582e53c2807a011	Bormujos	España	ES	-6.0701344	37.3722503
15ad7ba56c5d2f1a	Cintruénigo	España	ES	-1.8062402	42.0800902
15c63e3bc5638aa4	Hueyotlipan	México	MX	-98.34599809999999	19.4671573
163c4422d849466a	Xochitepec	México	MX	-99.23080139999999	18.7790597
168b85f9c39063f6	Irurtzun	España	ES	-1.8275668	42.9192528
16d7e4bdce732b26	Lloret de Mar	España	ES	2.8398194	41.7005989
171208c52d5455f8	Xochimilco	México	MX	-99.1029664	19.2572314
177ab29005ece697	Monacillo Urbano	United States	US	-66.064218	18.3753119
17c20fdbd1e6ec99	La Roda	España	ES	-2.1843285	39.1755765
17e17f3d8fa8e9dd	Abarán	España	ES	-1.4012039	38.2040853
1808e9ed9e667620	México	México	MX	-102.552784	23.634501
1843a8f0eb3beb5b	Valencia de Don Juan	España	ES	-5.519119799999999	42.29253
185a55f1afea0489	Salas de los Infantes	España	ES	-3.2866585	42.0219951
18760d8c2f8ec22e	Calafell	España	ES	1.5664556	41.1938386
18810aa5b43e76c7	Dallas	United States	US	-96.79698789999999	32.7766642
18a28595eed76f60	Cayey	United States	US	-66.166	18.1119051
18b3208b53b3cf34	Añover de Tajo	España	ES	-3.766365699999999	39.9894861
18b8e51f61432c59	Valle del Cauca	Colombia	CO	-76.64127119999999	3.8008893
18c18e978b43e7a1	Villa de Reyes	México	MX	-100.9324541	21.8058423
190160bb6a994349	Castelló d'Empúries	España	ES	3.0738992	42.2604918
191fd078e0623460	Puerto Lumbreras	España	ES	-1.808677	37.5609105
19390e18139cbf14	Vilalba	España	ES	-7.6807717	43.2974899
1956934a56c7545f	Ribadavia	España	ES	-8.1420491	42.288847
196ea830881e885f	Horcajo de Montemayor	España	ES	-5.894093799999999	40.4218467
199741a53dd19de2	Poussan	France	FR	3.669152	43.488777
19b2fbbe3a47c7aa	L'Olleria	España	ES	-0.5506019999999999	38.9146211
19ee0800355f312e	El Rasillo de Cameros	España	ES	-2.6971442	42.19600870000001
1a27537478dd8e38	Barcelona	España	ES	2.1734035	41.3850639
1a7499c3bbde4af6	Plasenzuela	España	ES	-6.048727899999999	39.3818571
1a82ccac2dd03215	Rojales	España	ES	-0.7235857	38.0860483
1a99060c89a225b5	San Juan de los Lagos	México	MX	-102.3316999	21.2474689
1aa3e9b1e67ae102	Parets del Vallès	España	ES	2.2285864	41.56468599999999
1aca5ffbc553e95b	L'Hospitalet de Llobregat	España	ES	2.1164942	41.3661865
1aceea79031dec0b	Álora	España	ES	-4.7057687	36.8249628
1b02a08eb3273515	Albolote	España	ES	-3.6543577	37.2283225
1b107df3ccc0aaa1	Brazil	Brasil	BR	-51.92528	-14.235004
1b50bb8ad6313ebe	Somiedo	España	ES	-6.2800864	43.1187291
1b5615b442d2aec0	Santa Pola	España	ES	-0.5612438	38.1965614
1b70c0ac9adf9a47	Ribadeo	España	ES	-7.1144039	43.5122469
1ba6cc7d83e56acd	Porto Velho	Brasil	BR	-63.90043979999999	-8.7611933
1be20cd5b07df15f	Mondoñedo	España	ES	-7.3638468	43.4285755
1c114e08bbeec66c	Tres Cantos	España	ES	-3.7079745	40.600727
1c2fcf0ea46bcd33	Isla Mujeres	México	MX	-86.73409339999999	21.2321799
1c7db8faca7cda7e	Las Piedras	United States	US	-107.3408813	37.2236144
1c82b5d240c151a7	O Barco de Valdeorras	España	ES	-6.985347399999999	42.3971318
1c952ecb9c22ca06	Centro de la Ciudad de México	México	MX	-99.131757	19.4357068
1cb7e0960657152c	Fuente del Maestre	España	ES	-6.4490114	38.5267275
1cbd42cdf960d6a8	O Carballiño	España	ES	-8.0775086	42.4316551
1cdac87415ba2465	West Odessa	United States	US	-102.498757	31.8423472
1ce970b0c9a963c8	Jerez de los Caballeros	España	ES	-6.774696500000001	38.3212139
1d23a12800a574a8	Lerma	México	MX	-99.5244687	19.2913424
1d23c6309ee6decf	Formosa	Argentina	AR	-58.1755669	-26.1857768
1d27177298e7395d	Arahal	España	ES	-5.5434222	37.2593351
1d2c8a106f21bef1	Bornos	España	ES	-5.7433562	36.8159238
1d53b02190362794	Ramales de la Victoria	España	ES	-3.4634142	43.2569092
1d625ac4df32dd0e	Aracena	España	ES	-6.561888400000001	37.8935487
1d64c2e7bb70cfa1	San Pedro Cholula	México	MX	-98.3052374	19.0568652
1d84c92e585a29b0	Begues	España	ES	1.919278	41.3316045
1da36f6b310b6d9b	Santa María de Ordás	España	ES	-5.8231872	42.7266695
1db1e032b2a2ac07	Sant Josep de sa Talaia	España	ES	1.2934954	38.9217535
1dc9cc8f4c388661	Lorca	España	ES	-1.6968357	37.6735925
1ddba1ba9c4a3e5d	Quindio	Colombia	CO	-75.667356	4.4610191
1dde44866aedfed4	Cayey	United States	US	-66.166	18.1119051
1de706402a7f328e	Pozuelo de Alarcón	España	ES	-3.8058517	40.4440627
1e1d2b1bbd65c738	Temoaya	México	MX	-99.59404169999999	19.4653884
1e24f464378915c8	A Coruña	España	ES	-8.4115401	43.3623436
1e2ba03c2991a044	Gutierre-Muñoz	España	ES	-4.6379323	40.9835099
1e30a53ee4f9d4b4	Castroverde	España	ES	-7.3256658	43.0296285
1e5f63ba3b69f16e	Ajangiz	España	ES	-2.6636066	43.3033795
1e69d9e28891981f	Finestrat	España	ES	-0.2125435	38.5677498
1e6d711c280456ce	Colima	México	MX	-103.7240868	19.2452342
1e766d311eb323fb	La Rinconada	España	ES	-5.9816424	37.4872681
1e88184059140d48	Pereña de la Ribera	España	ES	-6.5236424	41.2379075
1e98e979c861a29b	Ciempozuelos	España	ES	-3.6192473	40.157955
1ea4c99acd538de3	Carral	España	ES	-8.3556679	43.2290575
1ec7e69c74efd138	León	España	ES	-5.5670959	42.5987263
1ed82be977be0cfa	Buenos Aires City Region	Argentina	AR	-58.3815591	-34.6036844
1ed928d2968a7085	Moncada	España	ES	-0.3983829	39.5633358
1edae77635611607	Torrenueva	España	ES	-3.4883444	36.7034121
1ee0fdf76b83bda6	San Fernando de Henares	España	ES	-3.5104537	40.42905289999999
1f13e2ef1bb076be	Albinyana	España	ES	1.486239	41.2449807
1f15db74a48db77e	La Bisbal del Penedès	España	ES	1.4887997	41.2794225
1f4f6367ccd0ecb2	Villajoyosa	España	ES	-0.2285807	38.5079606
1f4fe3de5cffaac6	Gordexola	España	ES	-3.0748899	43.179379
1f4ff1bbfc685078	Abasolo	México	MX	-101.5269589	20.4536351
1f6df714d34775d5	Calamocha	España	ES	-1.299939	40.9173028
1f94bf7f126f81eb	Bejucos	United States	US	-67.04348039999999	18.4950656
1fa4b7cb3217f5f8	Trigueros	España	ES	-6.8377799	37.3852588
1fbc2dd3afbfd138	Umuarama	Brasil	BR	-53.3206105	-23.7661064
1fc67fa895d75a43	Montellano	España	ES	-5.570916899999999	36.994066
1fcf0565f32268d7	Chimalhuacán	México	MX	-98.95820479999999	19.4314047
1ffbbc469e2a4cdb	Valle de Trápaga-Trapagaran	España	ES	-3.0372333	43.3049937
206c436ce43a43a3	Madrid	España	ES	-3.7037902	40.4167754
2081037a6f3ab479	La Mojonera	España	ES	-2.6822356	36.7531816
2085c7dbb6552142	Bolaños de Calatrava	España	ES	-3.664859	38.9068623
209ee36cf49885fd	Cáceres	España	ES	-6.3724247	39.4752765
20b28994e55ba536	Silao	México	MX	-101.4282369	20.952141
20e313facb9531c7	Jun	España	ES	-3.5931416	37.2202852
20fd75798dd07dab	Cuevas	United States	US	-66.6415858	18.4927046
210401311b6bb8fe	Solana de Ávila	España	ES	-5.6135989	40.3150614
211f15d1b1a0f8d5	Vitoria-Gasteiz	España	ES	-2.681791800000001	42.8591656
21308735a1cb222e	Collado Hermoso	España	ES	-3.9183693	41.0391125
214d44e6329a203b	Hornachos	España	ES	-6.069243200000001	38.5522584
2168259d22835194	Peralta	España	ES	-1.7990957	42.3389757
2177c0ad70cd6b6a	Gata de Gorgos	España	ES	0.0802247	38.774555
219b1d1f289e5fe7	Santanyí	España	ES	3.1177555	39.341242
21b2510c98463b95	Villarta de San Juan	España	ES	-3.4208141	39.2381177
21b8315555fd34c4	Benissa	España	ES	0.0524919	38.7145489
21bc2be3be4fd39c	Caspe	España	ES	-0.0408208	41.23440069999999
21bfbc646a2400a4	Naranjos Amatlán	México	MX	-97.68475740000001	21.3503658
21c5dc2e9bf656f9	La Rioja	Argentina	AR	-66.8564579	-29.4134538
21e9b90148006ead	Castañar de Ibor	España	ES	-5.418173599999999	39.6282197
21f3980cae3991ec	Tecolutla	México	MX	-97.01012709999999	20.4795519
22168bb38f7a90a0	Chalchicomula de Sesma	México	MX	-97.44449	18.9854
22175fca3c57e7ff	Sant Celoni	España	ES	2.5495112	41.6826815
223221a9768a6c57	Sueca	España	ES	-0.3113278	39.2033565
22649da711224ab7	Jujuy	Argentina	AR	-65.2994767	-24.1857864
2267245f8687796d	Valdepeñas de Jaén	España	ES	-3.8176232	37.5909347
226e1fa774b46608	Aia	España	ES	-2.148555	43.2368999
22886de3634e157a	Culiacán	México	MX	-107.3940117	24.8090649
228df3b3172a6c0d	Herrera de Valdecañas	España	ES	-4.200664600000001	42.0491071
2291a663db193814	Asientos	México	MX	-102.0890156	22.2384759
22d566d1959cebde	Aguilar de la Frontera	España	ES	-4.6566596	37.5138455
22d8459be777e8bf	Calañas	España	ES	-6.8793335	37.6548016
22dfbb86abdb5e52	San Román de los Montes	España	ES	-4.73228	40.068699
22f039c865bb482f	Poza Rica de Hidalgo	México	MX	-97.4629119	20.5270592
22f852677d7aa1f8	Santo Adriano	España	ES	-5.977970200000001	43.2844407
231b6c244d22554f	Campillo de Arenas	España	ES	-3.635713399999999	37.5549229
2329ec3526be8210	Tineo	España	ES	-6.4503434	43.340575
2337678e8b728872	San Jorge	España	ES	0.3321829	40.5095107
2351f84caeaf1f4e	Quesada	España	ES	-3.066385	37.8446058
2361c7fb59f4b3d2	Irun	España	ES	-1.7888483	43.3380969
2379613823d14a4c	Lacroix-Falgarde	France	FR	1.40982	43.499398
237b29b256826bd4	Ciudad Satélite	México	MX	-99.23424209999999	19.5142831
237e312df6b4b68d	La Morera	España	ES	-6.6524535	38.5460697
2383b89d48a5326d	Brazatortas	España	ES	-4.2942469	38.6588764
238cb95da3441d7d	Arguis	España	ES	-0.4390353	42.3148776
23966ee7b891e03b	Oropesa del Mar	España	ES	0.1401381	40.1144658
23a7123a564d5828	Yucatán	México	MX	-89.0943377	20.7098786
23b94c308d6825fa	Vilhena	Brasil	BR	-60.1304566	-12.7414031
23dafc1085cc072e	Cartes	España	ES	-4.0689066	43.3254398
23dffe1ba788303a	Castilla y León	España	ES	-4.397635699999999	41.83568210000001
23e015abafb6ab35	Cascavel	Brasil	BR	-53.45951119999999	-24.9577771
2400156d6de057e3	Tijuana	México	MX	-117.0382471	32.5149469
2416592fa8fe9d74	Universidad Nacional Autónoma de México	México	MX	-99.18657739999999	19.3228313
242691d81a63454a	Jerte	España	ES	-5.7519844	40.2224705
24406664809e81eb	Baeza	España	ES	-3.4676157	37.9966884
2447079a30a3c19e	Ugena	España	ES	-3.8769847	40.1585774
245c16343af35cdf	Igualada	España	ES	1.612949	41.5849177
248761465ce7089f	Ponteareas	España	ES	-8.5064757	42.1756174
24a9655e30d429ae	Cieza	España	ES	-1.4217274	38.2420912
24b32f98629bb7b4	Bollullos de la Mitación	España	ES	-6.1381188	37.339834
24c913716e37f3aa	Saltos	United States	US	-66.4092941	18.2047034
24eda8f4f6b44ab9	Brenes	España	ES	-5.8719234	37.5486335
24fb19b9e736282f	Martorell	España	ES	1.9175637	41.4774253
250adc03f6a11842	Sant Quirze del Vallès	España	ES	2.0776681	41.5351317
251d4df21124798b	Don Alvaro	España	ES	-6.273445199999999	38.8494351
252b1de75d3aade5	Adolfo López Mateos	México	MX	-99.6333401	19.3207917
25382515e8e1cdf2	San Pedro Mixtepec-Distrito 22	México	MX	-97.0794263	15.9799244
253fc01f2c7c2292	El Bosque	España	ES	-5.5061788	36.75800419999999
25530ba03b7d90c6	Mexico	México	MX	-102.552784	23.634501
256c7ae13104266a	Velilla de San Antonio	España	ES	-3.4864498	40.3699557
25904a4dfba77093	Ezequiel Montes	México	MX	-99.8962279	20.6713387
259ecb23dd9f4e66	Melchor Ocampo	México	MX	-99.14349639999999	19.7031072
25a19e971bbc75f9	Piloña	España	ES	-5.3520876	43.3202455
25bc24f4aecd0869	Azagra	España	ES	-1.8949674	42.30975309999999
25c18d19488e3615	Collado Mediano	España	ES	-4.026725799999999	40.6927311
25d03473e1973a7c	Sant Adrià de Besòs	España	ES	2.2245813	41.42668
25d58fec2c8c8a93	Trevélez	España	ES	-3.2665353	37.0012828
260f5fd28d44a040	San Juan de Aznalfarache	España	ES	-6.0343054	37.3592432
2611159892bcee4b	Santa Margalida	España	ES	3.1039678	39.7020092
2619532fc86bb474	Laguardia	España	ES	-2.5841375	42.5535038
2626319d682f9215	Piña de Campos	España	ES	-4.4368602	42.2141197
262744e819eae7b6	Aeropuerto Internacional Benito Juárez	México	MX	-99.07190829999999	19.4360762
2633f75c89af6a21	Villas de Pachuca	México	MX	-98.78185309999999	20.0534346
263c90cf6618f15d	Maello	España	ES	-4.5121745	40.8088155
266278c7decc8fa1	Manises	España	ES	-0.4635382999999999	39.4937868
2687a8e28487bb51	Zarzal	United States	US	-65.7906713	18.3782483
269c0a42f9329996	Pedrosa de Duero	España	ES	-3.9846538	41.7110384
269d0dbebdad7b5f	Vilanova de Arousa	España	ES	-8.8274228	42.5627589
26b589ba0d8b9bc1	São Borja	Brasil	BR	-56.0041451	-28.6583059
26ca6ce58f3c91ff	Bayamón	United States	US	-66.1458297	18.3824458
26dc9449bfa45cce	Stephenville	United States	US	-98.2022633	32.2206958
26e9fa21791d5b73	Corbera	España	ES	-0.3530666	39.158386900000004
26eed45b8a5a9a6e	Méntrida	España	ES	-4.1936206	40.2394809
270941865e47a044	Almoradí	España	ES	-0.7937015	38.1107088
2713d0c8de1d301b	Villar del Olmo	España	ES	-3.2360518	40.3361286
2718b364149745fd	Plasencia	España	ES	-6.0838065	40.04209549999999
2720d06cdd281c1b	Arecibo	United States	US	-66.6464068	18.444247
2727af9b6222f4d4	Atizapán de Zaragoza	México	MX	-99.2674713	19.5562275
274e318f06314c10	San Julián	México	MX	-102.1804261	21.0052225
275238c5d8c6b397	Baleares	España	ES	2.7356328	39.3587759
276b371ac900b36f	Xaló	España	ES	-0.0110143	38.7406537
277797c86b2150c1	Villamanrique	España	ES	-2.9988098	38.5452068
2799b368bf4d8b5e	Roda de Barà	España	ES	1.4603319	41.1870398
27f8475e66758a89	Blanca	España	ES	-1.3698341	38.1780607
282d9429ee1557ea	Alovera	España	ES	-3.2477262	40.5961557
285f44d443b12ff9	Aguilar de Campoo	España	ES	-4.2622141	42.7931905
2860b5f3f61795c9	Lalín	España	ES	-8.1110256	42.6611505
28788db978032fdf	Sant Pere de Ribes	España	ES	1.7830973	41.2570604
2879c1effdeb1082	Ontur	España	ES	-1.4978716	38.6159034
28ace6b8d6dbc3af	Chula Vista	United States	US	-117.0841955	32.6400541
28cebf785c92a69c	Santa Olalla	España	ES	-4.4297848	40.02370880000001
2938d8dac19af218	Ullastrell	España	ES	1.9636914	41.52955170000001
297ada4c2b9ea879	Bétera	España	ES	-0.4620313	39.5915208
298b2cd4d9c6ecf2	Sant Andreu de la Barca	España	ES	1.9728327	41.4470241
29b32f5f728d67fb	Porreres	España	ES	3.0238803	39.5148577
29d13ffa19d52ea3	Sant Quirze Safaja	España	ES	2.1744993	41.7301909
29e23b65669fa93b	Tecate	México	MX	-116.6256752	32.563609
2a0619c7087e5199	Valleseco	España	ES	-15.5750903	28.0502059
2a073d771b49abc8	Vilanova del Camí	España	ES	1.6391874	41.57027830000001
2a13974d57c4c1cb	Monistrol de Montserrat	España	ES	1.8464648	41.611353
2a1989ee19692ec2	Vila-seca	España	ES	1.1400998	41.1089174
2a376531dff3d76a	Tlalpan	México	MX	-99.2114234	19.2790911
2a53c9bf7aa6171b	Punta Umbría	España	ES	-6.9704976	37.1852585
2a5f332991732d69	Tecamachalco	México	MX	-97.7327256	18.8819104
2a654aebfcd780c0	Pasaia	España	ES	-1.9301396	43.32547030000001
2a97dbf7b59ffb6d	Hoyo de Manzanares	España	ES	-3.9082735	40.6226405
2abc137d719f3fc7	Menasalbas	España	ES	-4.2833418	39.6414112
2accf27952ec3a39	Plan	España	ES	-3.670417	40.447443
2ad75d35657c8970	Pugnado Afuera	United States	US	-66.4140591	18.4291138
2afe3164f39d1b83	Valladolid	España	ES	-4.724532099999999	41.652251
2b05469ae27e0f47	El Río	United States	US	-119.159416	34.2407189
2b0f8ba934b52db1	Palau-solità I Plegamans	España	ES	2.1804146	41.5839461
2b494a0d3dad17a6	Coamo	United States	US	-66.35794729999999	18.0799616
2b49ce5ccef0dc24	Oria	España	ES	-2.2938229	37.484629
2b53b3439c29b85b	San Sebastián	España	ES	-1.9812313	43.318334
2b7eb10d9d360cfb	Hualahuises	México	MX	-99.67590399999999	24.8830065
2bdc3da01d52ca12	Barañáin	España	ES	-1.6846077	42.8041023
2be48215984b4a02	Valdecaballeros	España	ES	-5.190790499999999	39.2447679
2bea0e9d665ee183	Marina de Cudeyo	España	ES	-3.7333537	43.413341
2c0346ba4b733e24	Odessa	United States	US	-102.3676431	31.8456816
2c05f2ee0a17497d	Santiago	México	MX	-100.1591213	25.4166153
2c7bed29790e4be8	Egüés	España	ES	-1.5520407	42.824973
2c93989d5510317c	Estella	España	ES	-2.0324524	42.6720856
2ca010f3c96ce2bd	Beniarrés	España	ES	-0.3789552	38.820587
2ca70f7249d7486e	Gor	España	ES	-2.9701207	37.3697226
2cc8747e1f1a2fd6	Mazatlán	México	MX	-106.4111425	23.2494148
2cf645bba5301f31	Puçol	España	ES	-0.3042778	39.6152816
2d322aee5ce21ca0	Alagón del Río	España	ES	-6.317462099999999	39.97339729999999
2d69e079581266bf	Getxo	España	ES	-3.0081319	43.3387367
2d76ec8129afdd51	Casas de Miravete	España	ES	-5.7438055	39.7270186
2d7fa855e6775d1b	La Llosa de Ranes	España	ES	-0.5340538	39.0190482
2d9792f650ad4871	Piedrabuena	España	ES	-4.1744145	39.0356538
2db56c7b2b87a1dd	Moralzarzal	España	ES	-3.9704867	40.6763507
2db66b9b677a050f	Matapozuelos	España	ES	-4.7911681	41.4130125
2dc9933b32e99b8a	Mamey	United States	US	NA	NA
2dcd3450e660973f	Alhama de Almería	España	ES	-2.5680946	36.9573355
2deee84da2a61240	Burlada	España	ES	-1.6156261	42.8264759
2df141f5f0144356	Hoyo Mulas	United States	US	-65.95588889999999	18.3964934
2dfa9ecb0179a4e4	Peru	Peru	PE	-75.015152	-9.189967
2e1c722e590c7e86	Buenaventura	España	ES	-4.8501191	40.1775206
2e346ed8da00afab	Ticul	México	MX	-89.5366069	20.397725
2e858e47881ddc48	Alicante	España	ES	-0.4906855	38.3459963
2eba4b17d2243e2e	Nueno	España	ES	-0.4388954	42.26674879999999
2ebd1da1b89e0436	Becerril de la Sierra	España	ES	-3.9954969	40.7102483
2ecd0572c6f765e3	Laredo	España	ES	-3.428383	43.4096287
2eea9e9d6968c236	Reocín	España	ES	-4.1206748	43.3422685
2f05c774cf6d3234	Acayucan	México	MX	-94.91459739999999	17.949192
2f1a17b771bdf16d	Montijo	España	ES	-6.6172103	38.9089185
2f32f019a4e4230d	Fuentidueña	España	ES	-3.9785954	41.4423637
2f5b3570d3425c1a	Paniza	España	ES	-1.2109306	41.2832962
2f5ccbf3d470843b	Rota	España	ES	-6.3601441	36.6236874
2f70c7b3a4a2749a	Vila-real	España	ES	-0.1005932	39.9397706
2f7f4701d444eaf4	Guadalcázar	España	ES	-4.9435325	37.7577589
2f85c542742dc2bc	Santiago del Teide	España	ES	-16.8156254	28.2972603
2fa01ea3a8fc1451	Narbonne	France	FR	3.003078	43.184277
2fc998503cdfe3cb	Castalla	España	ES	-0.6725355	38.5934127
2fd76039bcb27721	Baiona	España	ES	-8.852356200000001	42.1200897
2fe77286390d3526	Almodóvar del Río	España	ES	-5.014567	37.8131513
